[{"business_status": "OPERATIONAL", "geometry": {"location": {"lat": 1.2707329, "lng": 103.632071}, "viewport": {"northeast": {"lat": 1.272136930291502, "lng": 103.6334266802915}, "southwest": {"lat": 1.269438969708498, "lng": 103.6307287197085}}}, "icon": "https://maps.gstatic.com/mapfiles/place_api/icons/v1/png_71/restaurant-71.png", "icon_background_color": "#FF9E67", "icon_mask_base_uri": "https://maps.gstatic.com/mapfiles/place_api/icons/v2/restaurant_pinlet", "name": "Ebrahim", "place_id": "ChIJ3-5rNHQH2jERNoUfzNvcQnM", "plus_code": {"compound_code": "7JCJ+7R Singapore", "global_code": "6PH57JCJ+7R"}, "reference": "ChIJ3-5rNHQH2jERNoUfzNvcQnM", "scope": "GOOGLE", "types": ["restaurant", "food", "point_of_interest", "establishment"], "vicinity": "Singapore"}, {"business_status": "OPERATIONAL", "geometry": {"location": {"lat": 1.272028, "lng": 103.6333707}, "viewport": {"northeast": {"lat": 1.273404680291502, "lng": 103.6347216802915}, "southwest": {"lat": 1.270706719708498, "lng": 103.6320237197085}}}, "icon": "https://maps.gstatic.com/mapfiles/place_api/icons/v1/png_71/restaurant-71.png", "icon_background_color": "#FF9E67", "icon_mask_base_uri": "https://maps.gstatic.com/mapfiles/place_api/icons/v2/restaurant_pinlet", "name": "Al-Rich Indian muslim food", "opening_hours": {"open_now": false}, "photos": [{"height": 460, "html_attributions": ["<a href=\"https://maps.google.com/maps/contrib/115218813473005618811\">Ajees Pran</a>"], "photo_reference": "Aaw_FcJMuMaBoV-7l9JdT1Ndsmkf0op2iTZ7k-t7R_3ArSDHULHNcdEdRXV1GhyZfYxm7QR-2jzzC2_1EynZS8HN1cAGjMXVYwEUKG6VxN2g5Z9k_6rQukZQcng4zSLbPXCbo-QNnDSt9C-zXFToBMvnvenp95NePjiRU0UN-gj5mgwqKvvi", "width": 939}], "place_id": "ChIJ0aRX8W8H2jERsL262Lo9BHk", "plus_code": {"compound_code": "7JCM+R8 Singapore", "global_code": "6PH57JCM+R8"}, "reference": "ChIJ0aRX8W8H2jERsL262Lo9BHk", "scope": "GOOGLE", "types": ["restaurant", "food", "point_of_interest", "establishment"], "vicinity": "NO 636947 12 Tuas South Street, #13"}, {"business_status": "OPERATIONAL", "geometry": {"location": {"lat": 1.2866156, "lng": 103.6237202}, "viewport": {"northeast": {"lat": 1.287855230291502, "lng": 103.6250291302915}, "southwest": {"lat": 1.285157269708498, "lng": 103.6223311697085}}}, "icon": "https://maps.gstatic.com/mapfiles/place_api/icons/v1/png_71/restaurant-71.png", "icon_background_color": "#FF9E67", "icon_mask_base_uri": "https://maps.gstatic.com/mapfiles/place_api/icons/v2/restaurant_pinlet", "name": "islam din", "place_id": "ChIJ91sm9E0H2jERCEjIfXl_L_0", "plus_code": {"compound_code": "7JPF+JF Singapore", "global_code": "6PH57JPF+JF"}, "rating": 4, "reference": "ChIJ91sm9E0H2jERCEjIfXl_L_0", "scope": "GOOGLE", "types": ["restaurant", "food", "point_of_interest", "establishment"], "user_ratings_total": 1, "vicinity": "1a Tuas South Avenue 10"}, {"business_status": "CLOSED_TEMPORARILY", "geometry": {"location": {"lat": 1.279821, "lng": 103.6401659}, "viewport": {"northeast": {"lat": 1.281015580291502, "lng": 103.6415025302915}, "southwest": {"lat": 1.278317619708498, "lng": 103.6388045697085}}}, "icon": "https://maps.gstatic.com/mapfiles/place_api/icons/v1/png_71/restaurant-71.png", "icon_background_color": "#FF9E67", "icon_mask_base_uri": "https://maps.gstatic.com/mapfiles/place_api/icons/v2/restaurant_pinlet", "name": "Variety nugget", "permanently_closed": true, "place_id": "ChIJi35jtuUV2jERp3LqvIz0FL4", "plus_code": {"compound_code": "7JHR+W3 Singapore", "global_code": "6PH57JHR+W3"}, "reference": "ChIJi35jtuUV2jERp3LqvIz0FL4", "scope": "GOOGLE", "types": ["meal_takeaway", "restaurant", "food", "point_of_interest", "establishment"], "vicinity": ""}, {"business_status": "OPERATIONAL", "geometry": {"location": {"lat": 1.2951955, "lng": 103.6267547}, "viewport": {"northeast": {"lat": 1.296354680291502, "lng": 103.6280323802915}, "southwest": {"lat": 1.293656719708498, "lng": 103.6253344197085}}}, "icon": "https://maps.gstatic.com/mapfiles/place_api/icons/v1/png_71/restaurant-71.png", "icon_background_color": "#FF9E67", "icon_mask_base_uri": "https://maps.gstatic.com/mapfiles/place_api/icons/v2/restaurant_pinlet", "name": "\u897f\u9910", "opening_hours": {"open_now": false}, "place_id": "ChIJ4xG2sCcH2jERaBPm0PP5-q0", "plus_code": {"compound_code": "7JWG+3P Singapore", "global_code": "6PH57JWG+3P"}, "reference": "ChIJ4xG2sCcH2jERaBPm0PP5-q0", "scope": "GOOGLE", "types": ["restaurant", "food", "point_of_interest", "establishment"], "vicinity": "13 Tuas South Street 5"}, {"business_status": "OPERATIONAL", "geometry": {"location": {"lat": 1.2951955, "lng": 103.6267547}, "viewport": {"northeast": {"lat": 1.296373380291502, "lng": 103.6279817802915}, "southwest": {"lat": 1.293675419708498, "lng": 103.6252838197085}}}, "icon": "https://maps.gstatic.com/mapfiles/place_api/icons/v1/png_71/restaurant-71.png", "icon_background_color": "#FF9E67", "icon_mask_base_uri": "https://maps.gstatic.com/mapfiles/place_api/icons/v2/restaurant_pinlet", "name": "Tuas canteen", "photos": [{"height": 4160, "html_attributions": ["<a href=\"https://maps.google.com/maps/contrib/101576368206190999395\">Mahesh Nayak</a>"], "photo_reference": "Aaw_FcIzA0cWWeObInVWx4qQ2QpBWuwVTUUcQuK7Ef1M3CKnL5C7nf_TbBM8EgD2D2DhV4hsY5yMc_TZH19gEXLgPEB444OoIrAJXRc9fkWg8sdVgRC2gtT5M-5qVO6IsYeZ8iytvXamU75RPbYzrjn4rfG8PNTrs-b-2ELZ9YmFe3lCyRIq", "width": 3120}], "place_id": "ChIJWRvOxc4H2jER2Nu79dDyPyo", "plus_code": {"compound_code": "7JWG+3P Singapore", "global_code": "6PH57JWG+3P"}, "rating": 4.5, "reference": "ChIJWRvOxc4H2jER2Nu79dDyPyo", "scope": "GOOGLE", "types": ["restaurant", "food", "point_of_interest", "establishment"], "user_ratings_total": 2, "vicinity": "13 Tuas South Street 5, Singapore"}, {"business_status": "OPERATIONAL", "geometry": {"location": {"lat": 1.2949472, "lng": 103.6304833}, "viewport": {"northeast": {"lat": 1.296152580291502, "lng": 103.6324498802915}, "southwest": {"lat": 1.293454619708498, "lng": 103.6297519197085}}}, "icon": "https://maps.gstatic.com/mapfiles/place_api/icons/v1/png_71/restaurant-71.png", "icon_background_color": "#FF9E67", "icon_mask_base_uri": "https://maps.gstatic.com/mapfiles/place_api/icons/v2/restaurant_pinlet", "name": "ALI MD KAWSAR", "place_id": "ChIJt3sTaDQH2jERcK19IkEqm84", "plus_code": {"compound_code": "7JVJ+X5 Singapore", "global_code": "6PH57JVJ+X5"}, "reference": "ChIJt3sTaDQH2jERcK19IkEqm84", "scope": "GOOGLE", "types": ["restaurant", "food", "point_of_interest", "establishment"], "vicinity": "Singapore"}, {"business_status": "OPERATIONAL", "geometry": {"location": {"lat": 1.296133, "lng": 103.629492}, "viewport": {"northeast": {"lat": 1.297899280291502, "lng": 103.6309960802915}, "southwest": {"lat": 1.295201319708498, "lng": 103.6282981197085}}}, "icon": "https://maps.gstatic.com/mapfiles/place_api/icons/v1/png_71/restaurant-71.png", "icon_background_color": "#FF9E67", "icon_mask_base_uri": "https://maps.gstatic.com/mapfiles/place_api/icons/v2/restaurant_pinlet", "name": "\u65b0\u97e6\u6e2f\u5f0f\u70e7\u814a", "photos": [{"height": 1749, "html_attributions": ["<a href=\"https://maps.google.com/maps/contrib/102258065092472992485\">Pohboon Yeo</a>"], "photo_reference": "Aaw_FcJBWJlvKVW2oZY5QOjh672q-YW1jJlmnQhe-LRBqr98SJGkVuztbN5Di88clWAmfMbEYrbDlKuE1CJq35drX4mJItDTJKsicAiXRRDIk0RK5Ra3AhZ75W4_oCEz2H51bnTp0vugnUpiWhUXhcaiEMqlK52k61BXKA2Hi1y-hZKgRo2v", "width": 2469}], "place_id": "ChIJMVq1wyAH2jERyi7Z_h2eW5Q", "plus_code": {"compound_code": "7JWH+FQ Singapore", "global_code": "6PH57JWH+FQ"}, "reference": "ChIJMVq1wyAH2jERyi7Z_h2eW5Q", "scope": "GOOGLE", "types": ["restaurant", "food", "point_of_interest", "establishment"], "vicinity": "10 Tuas South Avenue 8, Singapore"}, {"business_status": "OPERATIONAL", "geometry": {"location": {"lat": 1.296133, "lng": 103.629492}, "viewport": {"northeast": {"lat": 1.297899280291502, "lng": 103.6309960802915}, "southwest": {"lat": 1.295201319708498, "lng": 103.6282981197085}}}, "icon": "https://maps.gstatic.com/mapfiles/place_api/icons/v1/png_71/restaurant-71.png", "icon_background_color": "#FF9E67", "icon_mask_base_uri": "https://maps.gstatic.com/mapfiles/place_api/icons/v2/restaurant_pinlet", "name": "\u6607\u767c\u4e2d\u5f0f\u83dc\u98ef economic bee hoon", "photos": [{"height": 2252, "html_attributions": ["<a href=\"https://maps.google.com/maps/contrib/102258065092472992485\">Pohboon Yeo</a>"], "photo_reference": "Aaw_FcKf14bpaOkRvo9jcxxMW_P31NBapGWsxL5XlpV1v9COklbL7pFq1kqcNdrKQh6AQ6qoxgGhWOBCfBHtw3AGMZaap8Pk9uQXkeTeF0Kn5y4cgXRu5uRgkVu6e7_N0ZN2xf3gsnMWAvCSzL9o_M_EgneU8pKsg46zUJlpLtwVZRDE8soa", "width": 4000}], "place_id": "ChIJgTMDuq0H2jERGOFqnE56VVE", "plus_code": {"compound_code": "7JWH+FQ Singapore", "global_code": "6PH57JWH+FQ"}, "reference": "ChIJgTMDuq0H2jERGOFqnE56VVE", "scope": "GOOGLE", "types": ["restaurant", "food", "point_of_interest", "establishment"], "vicinity": "10 Tuas South Avenue 8, Singapore"}, {"business_status": "OPERATIONAL", "geometry": {"location": {"lat": 1.296133, "lng": 103.629492}, "viewport": {"northeast": {"lat": 1.297899280291502, "lng": 103.6309960802915}, "southwest": {"lat": 1.295201319708498, "lng": 103.6282981197085}}}, "icon": "https://maps.gstatic.com/mapfiles/place_api/icons/v1/png_71/restaurant-71.png", "icon_background_color": "#FF9E67", "icon_mask_base_uri": "https://maps.gstatic.com/mapfiles/place_api/icons/v2/restaurant_pinlet", "name": "N.K.C Indian Muslim Food", "photos": [{"height": 1707, "html_attributions": ["<a href=\"https://maps.google.com/maps/contrib/102258065092472992485\">Pohboon Yeo</a>"], "photo_reference": "Aaw_FcLqS1l9bbxXfaO-kJLV9vLFDmWzvVeMHE7Lhlfq1T_RjLb-KTTkdJNMdf4XGBWcIMU1p6a7QmThbUFo94sKlicXo2YzTitUWJtQOaSRUwjWJRCoFASFSoaLZJ40k6dJ8OgPB5g9646UPXZm_hG6J_FOwmSw2jbkuMIDrYx70DnkDScs", "width": 2780}], "place_id": "ChIJ86r9DhEH2jERzA6xNX9NQKk", "plus_code": {"compound_code": "7JWH+FQ Singapore", "global_code": "6PH57JWH+FQ"}, "reference": "ChIJ86r9DhEH2jERzA6xNX9NQKk", "scope": "GOOGLE", "types": ["restaurant", "food", "point_of_interest", "establishment"], "vicinity": "10 Tuas South Avenue 8, Singapore"}, {"business_status": "OPERATIONAL", "geometry": {"location": {"lat": 1.296133, "lng": 103.629492}, "viewport": {"northeast": {"lat": 1.297899280291502, "lng": 103.6309960802915}, "southwest": {"lat": 1.295201319708498, "lng": 103.6282981197085}}}, "icon": "https://maps.gstatic.com/mapfiles/place_api/icons/v1/png_71/restaurant-71.png", "icon_background_color": "#FF9E67", "icon_mask_base_uri": "https://maps.gstatic.com/mapfiles/place_api/icons/v2/restaurant_pinlet", "name": "Ayden Muslim Food and Nasi Padang", "photos": [{"height": 2252, "html_attributions": ["<a href=\"https://maps.google.com/maps/contrib/102258065092472992485\">Pohboon Yeo</a>"], "photo_reference": "Aaw_FcJcOLegYu0RrvOjIBJZJuOmtl3hjybIh4O-wMFg5_Ozms5pixtCuSDs5d_Tgcugtcc2WO4P0wrlmy2aE1F8rZJRvPktycfUJ76EhwEEbqNopRzfrXaZBCeGn_VYwjIffwYynwk-bszBYxTBfbSuDSiDmz33Y95N32FRMGXmrfT_EtwY", "width": 4000}], "place_id": "ChIJe6eTt0EH2jERROIrIwo4izg", "plus_code": {"compound_code": "7JWH+FQ Singapore", "global_code": "6PH57JWH+FQ"}, "reference": "ChIJe6eTt0EH2jERROIrIwo4izg", "scope": "GOOGLE", "types": ["restaurant", "food", "point_of_interest", "establishment"], "vicinity": "10 Tuas South Avenue 8, Singapore"}, {"business_status": "OPERATIONAL", "geometry": {"location": {"lat": 1.2976794, "lng": 103.6290315}, "viewport": {"northeast": {"lat": 1.299000730291502, "lng": 103.6304509802915}, "southwest": {"lat": 1.296302769708498, "lng": 103.6277530197085}}}, "icon": "https://maps.gstatic.com/mapfiles/place_api/icons/v1/png_71/restaurant-71.png", "icon_background_color": "#FF9E67", "icon_mask_base_uri": "https://maps.gstatic.com/mapfiles/place_api/icons/v2/restaurant_pinlet", "name": "\u8089\u9aa8\u8336", "opening_hours": {"open_now": false}, "place_id": "ChIJZZsusn4H2jERbWuhcLpeD4A", "plus_code": {"compound_code": "7JXH+3J Singapore", "global_code": "6PH57JXH+3J"}, "reference": "ChIJZZsusn4H2jERbWuhcLpeD4A", "scope": "GOOGLE", "types": ["restaurant", "food", "point_of_interest", "establishment"], "vicinity": "10 Tuas View Pl, Singapore 637858 Tuas View Place, Singapore"}, {"business_status": "OPERATIONAL", "geometry": {"location": {"lat": 1.2985534, "lng": 103.6280978}, "viewport": {"northeast": {"lat": 1.300092980291502, "lng": 103.6292910802915}, "southwest": {"lat": 1.297395019708498, "lng": 103.6265931197085}}}, "icon": "https://maps.gstatic.com/mapfiles/place_api/icons/v1/png_71/restaurant-71.png", "icon_background_color": "#FF9E67", "icon_mask_base_uri": "https://maps.gstatic.com/mapfiles/place_api/icons/v2/restaurant_pinlet", "name": "Gopi", "place_id": "ChIJ9RgGEQIH2jERBtAEYTbNP3I", "plus_code": {"compound_code": "7JXH+C6 Singapore", "global_code": "6PH57JXH+C6"}, "rating": 3.3, "reference": "ChIJ9RgGEQIH2jERBtAEYTbNP3I", "scope": "GOOGLE", "types": ["restaurant", "food", "point_of_interest", "establishment"], "user_ratings_total": 3, "vicinity": "32 Tuas View Square, Singapore"}, {"business_status": "OPERATIONAL", "geometry": {"location": {"lat": 1.3005644, "lng": 103.624359}, "viewport": {"northeast": {"lat": 1.301891980291502, "lng": 103.6257651802915}, "southwest": {"lat": 1.299194019708498, "lng": 103.6230672197085}}}, "icon": "https://maps.gstatic.com/mapfiles/place_api/icons/v1/png_71/restaurant-71.png", "icon_background_color": "#FF9E67", "icon_mask_base_uri": "https://maps.gstatic.com/mapfiles/place_api/icons/v2/restaurant_pinlet", "name": "Jai Raja's Pte Ltd", "opening_hours": {"open_now": false}, "photos": [{"height": 808, "html_attributions": ["<a href=\"https://maps.google.com/maps/contrib/100114893952873655828\">Jai Raja&#39;s Pte Ltd</a>"], "photo_reference": "Aaw_FcJwtS8EZoBPs5ImeRrew8vrG4OhRSnJ47_v-xqeQvs1kj-u-KSQmXgTHfyCX3W_OE4msKhHs731MG6dxmXv5zf0rdmRzhriEd_z36X2XA2fxGfO1HWtjKGlhlOaGkDRTmMbTdapmG-1PLuxiBVuzUhoiZa9hrq7juPj78rfFv2whZz0", "width": 1440}], "place_id": "ChIJKzSDq80H2jERq8NzVWnR-uk", "plus_code": {"compound_code": "8J2F+6P Singapore", "global_code": "6PH58J2F+6P"}, "rating": 4, "reference": "ChIJKzSDq80H2jERq8NzVWnR-uk", "scope": "GOOGLE", "types": ["restaurant", "food", "point_of_interest", "establishment"], "user_ratings_total": 80, "vicinity": "15 Tuas View Cl, 92 Tuas South Avenue 3, Singapore"}, {"business_status": "OPERATIONAL", "geometry": {"location": {"lat": 1.3008866, "lng": 103.6273484}, "viewport": {"northeast": {"lat": 1.302193980291502, "lng": 103.6286814802915}, "southwest": {"lat": 1.299496019708498, "lng": 103.6259835197085}}}, "icon": "https://maps.gstatic.com/mapfiles/place_api/icons/v1/png_71/restaurant-71.png", "icon_background_color": "#FF9E67", "icon_mask_base_uri": "https://maps.gstatic.com/mapfiles/place_api/icons/v2/restaurant_pinlet", "name": "GV RESTAURANT PTE LTD", "place_id": "ChIJi23YbQ4H2jERUj66I5FSJiU", "plus_code": {"compound_code": "8J2G+9W Singapore", "global_code": "6PH58J2G+9W"}, "rating": 5, "reference": "ChIJi23YbQ4H2jERUj66I5FSJiU", "scope": "GOOGLE", "types": ["restaurant", "food", "point_of_interest", "establishment"], "user_ratings_total": 1, "vicinity": "109 Tuas View Walk 1"}, {"business_status": "OPERATIONAL", "geometry": {"location": {"lat": 1.299008, "lng": 103.639971}, "viewport": {"northeast": {"lat": 1.300501130291502, "lng": 103.6414446302915}, "southwest": {"lat": 1.297803169708498, "lng": 103.6387466697085}}}, "icon": "https://maps.gstatic.com/mapfiles/place_api/icons/v1/png_71/restaurant-71.png", "icon_background_color": "#FF9E67", "icon_mask_base_uri": "https://maps.gstatic.com/mapfiles/place_api/icons/v2/restaurant_pinlet", "name": "Staff Canteen @ Tuas South Avenue 6", "opening_hours": {"open_now": false}, "place_id": "ChIJ72deZdcF2jERRUV1Z2kJmYQ", "plus_code": {"compound_code": "7JXQ+JX Singapore", "global_code": "6PH57JXQ+JX"}, "rating": 4.5, "reference": "ChIJ72deZdcF2jERRUV1Z2kJmYQ", "scope": "GOOGLE", "types": ["restaurant", "food", "point_of_interest", "establishment"], "user_ratings_total": 2, "vicinity": "35 Tuas South Avenue 6"}, {"business_status": "OPERATIONAL", "geometry": {"location": {"lat": 1.28156, "lng": 103.678582}, "viewport": {"northeast": {"lat": 1.282804280291502, "lng": 103.6797859802915}, "southwest": {"lat": 1.280106319708498, "lng": 103.6770880197085}}}, "icon": "https://maps.gstatic.com/mapfiles/place_api/icons/v1/png_71/restaurant-71.png", "icon_background_color": "#FF9E67", "icon_mask_base_uri": "https://maps.gstatic.com/mapfiles/place_api/icons/v2/restaurant_pinlet", "name": "Staff Canteen @ Pesek Road", "opening_hours": {"open_now": false}, "place_id": "ChIJjyzxa1cE2jER2kmN4nBIZAw", "plus_code": {"compound_code": "7MJH+JC Singapore", "global_code": "6PH57MJH+JC"}, "rating": 5, "reference": "ChIJjyzxa1cE2jER2kmN4nBIZAw", "scope": "GOOGLE", "types": ["restaurant", "point_of_interest", "food", "establishment"], "user_ratings_total": 1, "vicinity": "1 Pesek Road"}, {"business_status": "OPERATIONAL", "geometry": {"location": {"lat": 1.2680014, "lng": 103.6933575}, "viewport": {"northeast": {"lat": 1.269342480291502, "lng": 103.6946203302915}, "southwest": {"lat": 1.266644519708498, "lng": 103.6919223697085}}}, "icon": "https://maps.gstatic.com/mapfiles/place_api/icons/v1/png_71/restaurant-71.png", "icon_background_color": "#FF9E67", "icon_mask_base_uri": "https://maps.gstatic.com/mapfiles/place_api/icons/v2/restaurant_pinlet", "name": "Staff Cafeteria @ Jurong Island Highway", "opening_hours": {"open_now": false}, "place_id": "ChIJo9Mhko0E2jERWutaWT6kams", "plus_code": {"compound_code": "7M9V+68 Singapore", "global_code": "6PH57M9V+68"}, "reference": "ChIJo9Mhko0E2jERWutaWT6kams", "scope": "GOOGLE", "types": ["restaurant", "point_of_interest", "food", "establishment"], "vicinity": "100 Jurong Island Highway"}, {"business_status": "OPERATIONAL", "geometry": {"location": {"lat": 1.3003729, "lng": 103.6554466}, "viewport": {"northeast": {"lat": 1.301660030291502, "lng": 103.6567227802915}, "southwest": {"lat": 1.298962069708498, "lng": 103.6540248197085}}}, "icon": "https://maps.gstatic.com/mapfiles/place_api/icons/v1/png_71/bar-71.png", "icon_background_color": "#FF9E67", "icon_mask_base_uri": "https://maps.gstatic.com/mapfiles/place_api/icons/v2/bar_pinlet", "name": "Fillmes Ris Bar", "opening_hours": {"open_now": false}, "place_id": "ChIJdxO0PcQF2jERSDao4-lC758", "plus_code": {"compound_code": "8M24+45 Singapore", "global_code": "6PH58M24+45"}, "reference": "ChIJdxO0PcQF2jERSDao4-lC758", "scope": "GOOGLE", "types": ["bar", "restaurant", "point_of_interest", "food", "establishment"], "vicinity": "51 Pioneer Sector 1"}, {"business_status": "OPERATIONAL", "geometry": {"location": {"lat": 1.3079105, "lng": 103.6315143}, "viewport": {"northeast": {"lat": 1.309084830291502, "lng": 103.6327854302915}, "southwest": {"lat": 1.306386869708498, "lng": 103.6300874697085}}}, "icon": "https://maps.gstatic.com/mapfiles/place_api/icons/v1/png_71/restaurant-71.png", "icon_background_color": "#FF9E67", "icon_mask_base_uri": "https://maps.gstatic.com/mapfiles/place_api/icons/v2/restaurant_pinlet", "name": "Kedai Mak Ndak", "photos": [{"height": 4000, "html_attributions": ["<a href=\"https://maps.google.com/maps/contrib/104826978859600356372\">Lim Ju Meng</a>"], "photo_reference": "Aaw_FcK3YXX2Hx8FeNdxonDIttVmQZLUcuZa9MlRb4lNCVrnK08pygLWkstNfRBbcG3UsTykBQF-p5y0DhB89RPKJ8-szmjSj_5BdJAo9yiVYZcN7lFEepQ8v_3DWgJHjNjUuvxzyoz-e2ksa9QJeZSvKYnswTZe9lFCN2L5LXn6cmPR39Fv", "width": 2250}], "place_id": "ChIJpzz-4ewH2jERxFNBJjIw6fg", "plus_code": {"compound_code": "8J5J+5J Singapore", "global_code": "6PH58J5J+5J"}, "rating": 5, "reference": "ChIJpzz-4ewH2jERxFNBJjIw6fg", "scope": "GOOGLE", "types": ["restaurant", "point_of_interest", "food", "establishment"], "user_ratings_total": 1, "vicinity": "2 Tuas South Street 2"}, {"business_status": "CLOSED_TEMPORARILY", "geometry": {"location": {"lat": 1.308057, "lng": 103.6314757}, "viewport": {"northeast": {"lat": 1.309166380291502, "lng": 103.6327422302915}, "southwest": {"lat": 1.306468419708498, "lng": 103.6300442697085}}}, "icon": "https://maps.gstatic.com/mapfiles/place_api/icons/v1/png_71/restaurant-71.png", "icon_background_color": "#FF9E67", "icon_mask_base_uri": "https://maps.gstatic.com/mapfiles/place_api/icons/v2/restaurant_pinlet", "name": "Forum Roasted Bbq", "permanently_closed": true, "photos": [{"height": 2988, "html_attributions": ["<a href=\"https://maps.google.com/maps/contrib/104670213514945963698\">Forum Roasted Bbq</a>"], "photo_reference": "Aaw_FcJ1B8FIwDm67EPcA6CLCe5t-6DNWa1j0-nQ94QWFol2gwnIqqxawb00wX2Ox46mFKQljHt3aoQsspnfvpzmF6oBXI2CgVFiSwzNemVAWUW8ejyF2T7hT_gZvBK0JMUv2RFPWQ_3oUwJ05bSKWsMJ3Rrlmp61e2hbamm5uZDTbMV32YG", "width": 5312}], "place_id": "ChIJITBrvHQG2jERcNDnppjqfR8", "plus_code": {"compound_code": "8J5J+6H Singapore", "global_code": "6PH58J5J+6H"}, "price_level": 2, "rating": 3.9, "reference": "ChIJITBrvHQG2jERcNDnppjqfR8", "scope": "GOOGLE", "types": ["restaurant", "food", "point_of_interest", "establishment"], "user_ratings_total": 51, "vicinity": "2 Tuas South Street 2"}, {"business_status": "OPERATIONAL", "geometry": {"location": {"lat": 1.2673385, "lng": 103.704543}, "viewport": {"northeast": {"lat": 1.268598880291502, "lng": 103.7056528802915}, "southwest": {"lat": 1.265900919708498, "lng": 103.7029549197085}}}, "icon": "https://maps.gstatic.com/mapfiles/place_api/icons/v1/png_71/restaurant-71.png", "icon_background_color": "#FF9E67", "icon_mask_base_uri": "https://maps.gstatic.com/mapfiles/place_api/icons/v2/restaurant_pinlet", "name": "KJM CURRY HOUSE & RESTAURANT", "opening_hours": {"open_now": false}, "photos": [{"height": 3120, "html_attributions": ["<a href=\"https://maps.google.com/maps/contrib/110628844706960465366\">Mugilan Murugun</a>"], "photo_reference": "Aaw_FcLmNivFg5DUxCsfnQk5P5uGK9fK_i3rH9nzi2z8OV0KHCxpHZLlyIFt2p0RuUljTquMLDLzEoxYrbY8QZr83k5j2ewivRx5dndgNPq5f7q0ljfV-I5D1PlvRnLZIjuREpagonz4Cp_JZStn1o7aumj-oQJXvmNgC_G2natXqKjhafjj", "width": 4160}], "place_id": "ChIJDeLY65UE2jERLYIiZj1snS4", "plus_code": {"compound_code": "7P83+WR Singapore", "global_code": "6PH57P83+WR"}, "rating": 3.4, "reference": "ChIJDeLY65UE2jERLYIiZj1snS4", "scope": "GOOGLE", "types": ["restaurant", "food", "point_of_interest", "establishment"], "user_ratings_total": 13, "vicinity": "3 Sakra Road"}, {"business_status": "OPERATIONAL", "geometry": {"location": {"lat": 1.3062887, "lng": 103.6574539}, "viewport": {"northeast": {"lat": 1.307534430291502, "lng": 103.6590686302915}, "southwest": {"lat": 1.304836469708498, "lng": 103.6563706697085}}}, "icon": "https://maps.gstatic.com/mapfiles/place_api/icons/v1/png_71/restaurant-71.png", "icon_background_color": "#FF9E67", "icon_mask_base_uri": "https://maps.gstatic.com/mapfiles/place_api/icons/v2/restaurant_pinlet", "name": "Qi Ren Vegetarian", "opening_hours": {"open_now": false}, "photos": [{"height": 3366, "html_attributions": ["<a href=\"https://maps.google.com/maps/contrib/101326179216721677495\">\u5bb6ReTohVira</a>"], "photo_reference": "Aaw_FcL8jf5-kEXBo2tWqUwDn4hGdTiSJKLHtXfsuAYENbMjLpv881DDcFMpw1fgDhxuKDsv6ql-R1gVOikreU0vlrrFNyYi17vZsY8RgpnD3JfP1KxT3VjjZ0xy5WF_ehHx0ApsVE9bC3bD7dVHk8iKbkvKddpT6Lcc9t0WlgVO_xPNAwtw", "width": 5984}], "place_id": "ChIJyXLAg54F2jERe_oV7CwguKE", "plus_code": {"compound_code": "8M44+GX Singapore", "global_code": "6PH58M44+GX"}, "rating": 4.2, "reference": "ChIJyXLAg54F2jERe_oV7CwguKE", "scope": "GOOGLE", "types": ["cafe", "store", "restaurant", "food", "point_of_interest", "establishment"], "user_ratings_total": 169, "vicinity": "32 Pioneer Sector 2"}, {"business_status": "OPERATIONAL", "geometry": {"location": {"lat": 1.3067286, "lng": 103.6648909}, "viewport": {"northeast": {"lat": 1.308109580291502, "lng": 103.6665039302915}, "southwest": {"lat": 1.305411619708498, "lng": 103.6638059697085}}}, "icon": "https://maps.gstatic.com/mapfiles/place_api/icons/v1/png_71/restaurant-71.png", "icon_background_color": "#FF9E67", "icon_mask_base_uri": "https://maps.gstatic.com/mapfiles/place_api/icons/v2/restaurant_pinlet", "name": "Allied Vending Hot Food Machine (GE Repair)", "place_id": "ChIJFf21klMF2jERXDeEXedbAaQ", "plus_code": {"compound_code": "8M47+MX Singapore", "global_code": "6PH58M47+MX"}, "rating": 5, "reference": "ChIJFf21klMF2jERXDeEXedbAaQ", "scope": "GOOGLE", "types": ["restaurant", "food", "point_of_interest", "establishment"], "user_ratings_total": 2, "vicinity": ""}, {"business_status": "OPERATIONAL", "geometry": {"location": {"lat": 1.3083461, "lng": 103.6967441}, "viewport": {"northeast": {"lat": 1.309701230291502, "lng": 103.6981064302915}, "southwest": {"lat": 1.307003269708498, "lng": 103.6954084697085}}}, "icon": "https://maps.gstatic.com/mapfiles/place_api/icons/v1/png_71/restaurant-71.png", "icon_background_color": "#FF9E67", "icon_mask_base_uri": "https://maps.gstatic.com/mapfiles/place_api/icons/v2/restaurant_pinlet", "name": "Shipyard Cafe (Canteen)", "photos": [{"height": 4032, "html_attributions": ["<a href=\"https://maps.google.com/maps/contrib/107626098173100988029\">Kenneth Kor</a>"], "photo_reference": "Aaw_FcI9bkDIdk7NWNYCEvnkoWjQ0qylVuBkd-PFXHlLxMknu1lsLx_8-gshVKPTk4U7CTOFPjjfc2S3LVhee3mDbdmVGpbNMvvsa5uAFyf2D5NZwr6LDAnr31v6GWZub-R6lYsnXIIGk5yPeYwjMHthxtdNBXBC8mMlwqsivi7cUvBnGdzb", "width": 3024}], "place_id": "ChIJgWdGnOEF2jER_ggcNlsl9Vo", "plus_code": {"compound_code": "8M5W+8M Singapore", "global_code": "6PH58M5W+8M"}, "rating": 5, "reference": "ChIJgWdGnOEF2jER_ggcNlsl9Vo", "scope": "GOOGLE", "types": ["restaurant", "food", "point_of_interest", "establishment"], "user_ratings_total": 2, "vicinity": "1 Shipyard Road"}, {"business_status": "OPERATIONAL", "geometry": {"location": {"lat": 1.2975443, "lng": 103.7633584}, "viewport": {"northeast": {"lat": 1.298957280291502, "lng": 103.7647456302915}, "southwest": {"lat": 1.296259319708498, "lng": 103.7620476697085}}}, "icon": "https://maps.gstatic.com/mapfiles/place_api/icons/v1/png_71/restaurant-71.png", "icon_background_color": "#FF9E67", "icon_mask_base_uri": "https://maps.gstatic.com/mapfiles/place_api/icons/v2/restaurant_pinlet", "name": "McDonald's West Coast Park", "opening_hours": {"open_now": true}, "photos": [{"height": 1868, "html_attributions": ["<a href=\"https://maps.google.com/maps/contrib/114314783965623173062\">Roy Lim</a>"], "photo_reference": "Aaw_FcJg-GMHxEYiS0vB7foIM5wUNZ006EEFEvuq0czdvuzRS8jCx40PGqiiN3VuJiW08cd0e0KVZkHiHjmXREy0i4CFDGrBSPMQtwGovbXyOVvsor0QgFQbtEth3xsI245S2S8WDfH2IB1CESBW--pc4HMfC4SxMTsPhOSDSlUMwSBBjw8P", "width": 4000}], "place_id": "ChIJS5IVbvwa2jERDxPwmWkRghI", "plus_code": {"compound_code": "7QX7+28 Singapore", "global_code": "6PH57QX7+28"}, "price_level": 1, "rating": 4.3, "reference": "ChIJS5IVbvwa2jERDxPwmWkRghI", "scope": "GOOGLE", "types": ["restaurant", "food", "point_of_interest", "establishment"], "user_ratings_total": 5036, "vicinity": "71 West Coast Highway"}, {"business_status": "OPERATIONAL", "geometry": {"location": {"lat": 1.2927481, "lng": 103.7627338}, "viewport": {"northeast": {"lat": 1.294055930291502, "lng": 103.7641894802915}, "southwest": {"lat": 1.291357969708498, "lng": 103.7614915197085}}}, "icon": "https://maps.gstatic.com/mapfiles/place_api/icons/v1/png_71/restaurant-71.png", "icon_background_color": "#FF9E67", "icon_mask_base_uri": "https://maps.gstatic.com/mapfiles/place_api/icons/v2/restaurant_pinlet", "name": "The Wharf", "opening_hours": {"open_now": false}, "photos": [{"height": 2336, "html_attributions": ["<a href=\"https://maps.google.com/maps/contrib/117681118694147432030\">Luke Phang</a>"], "photo_reference": "Aaw_FcLtnt0fxjCO4Gv07qYQUvb7mBmZM54C9BI9jodnAKoN7k71L7ARvByQdvTLkkAmhwIDScetbUAzOWTnGooip_Mj1VbRcA_Mg_QnOkPJrtYkTbGy7RqIX3Bym-uBupubftx_APRKT0n1mS-i8e8MlSpYiuAZhizrCF_DxSY46cHF_yy1", "width": 4160}], "place_id": "ChIJu7MGPOMa2jERiwWry4BnS2E", "plus_code": {"compound_code": "7QV7+33 Singapore", "global_code": "6PH57QV7+33"}, "rating": 3.4, "reference": "ChIJu7MGPOMa2jERiwWry4BnS2E", "scope": "GOOGLE", "types": ["restaurant", "cafe", "food", "point_of_interest", "establishment"], "user_ratings_total": 69, "vicinity": "52 West Coast Ferry Road, RSYC Yacht Club"}, {"business_status": "OPERATIONAL", "geometry": {"location": {"lat": 1.2929144, "lng": 103.7686345}, "viewport": {"northeast": {"lat": 1.294305130291502, "lng": 103.7699321302915}, "southwest": {"lat": 1.291607169708498, "lng": 103.7672341697085}}}, "icon": "https://maps.gstatic.com/mapfiles/place_api/icons/v1/png_71/restaurant-71.png", "icon_background_color": "#FF9E67", "icon_mask_base_uri": "https://maps.gstatic.com/mapfiles/place_api/icons/v2/restaurant_pinlet", "name": "Nana Original Thai Food Clementi", "opening_hours": {"open_now": true}, "photos": [{"height": 2268, "html_attributions": ["<a href=\"https://maps.google.com/maps/contrib/109675721687972627675\">Soon Hsiung Lim</a>"], "photo_reference": "Aaw_FcL2gqIr6DXUmrKm2z6QXp9d_fZhcVkrrXy_JJa34GMwEpHFCA-4q-DQqcOuOqKAdiiZEuGBJYhL1PGJh4hqSB27mt1Ngh3Ldf4eZ3Vl1VtvHhVXB-WlAo4wQiXcYKwidhi4uufHJ42QIPY9mWjdLpIpmQ836yRgtaExeYyK6NO4UgJE", "width": 4032}], "place_id": "ChIJpacnPPwa2jERoFkXHFExOI8", "plus_code": {"compound_code": "7QV9+5F Singapore", "global_code": "6PH57QV9+5F"}, "price_level": 1, "rating": 4.1, "reference": "ChIJpacnPPwa2jERoFkXHFExOI8", "scope": "GOOGLE", "types": ["restaurant", "food", "point_of_interest", "establishment"], "user_ratings_total": 515, "vicinity": "18 Clementi Road"}, {"business_status": "OPERATIONAL", "geometry": {"location": {"lat": 1.308133, "lng": 103.722354}, "viewport": {"northeast": {"lat": 1.309287630291502, "lng": 103.7234667802915}, "southwest": {"lat": 1.306589669708498, "lng": 103.7207688197085}}}, "icon": "https://maps.gstatic.com/mapfiles/place_api/icons/v1/png_71/restaurant-71.png", "icon_background_color": "#FF9E67", "icon_mask_base_uri": "https://maps.gstatic.com/mapfiles/place_api/icons/v2/restaurant_pinlet", "name": "933 Roast Duck", "opening_hours": {"open_now": false}, "place_id": "ChIJs1UZGjYF2jER6UBzQXRa8ic", "plus_code": {"compound_code": "8P5C+7W Singapore", "global_code": "6PH58P5C+7W"}, "reference": "ChIJs1UZGjYF2jER6UBzQXRa8ic", "scope": "GOOGLE", "types": ["restaurant", "food", "point_of_interest", "establishment"], "vicinity": "15 Jalan Tepong"}, {"business_status": "OPERATIONAL", "geometry": {"location": {"lat": 1.2853884, "lng": 103.778933}, "viewport": {"northeast": {"lat": 1.286657680291502, "lng": 103.7802204802915}, "southwest": {"lat": 1.283959719708498, "lng": 103.7775225197085}}}, "icon": "https://maps.gstatic.com/mapfiles/place_api/icons/v1/png_71/restaurant-71.png", "icon_background_color": "#FF9E67", "icon_mask_base_uri": "https://maps.gstatic.com/mapfiles/place_api/icons/v2/restaurant_pinlet", "name": "Ding Ji", "opening_hours": {"open_now": true}, "place_id": "ChIJDVtFxasb2jERC5v91LTtLro", "plus_code": {"compound_code": "7QPH+5H Singapore", "global_code": "6PH57QPH+5H"}, "price_level": 1, "reference": "ChIJDVtFxasb2jERC5v91LTtLro", "scope": "GOOGLE", "types": ["restaurant", "food", "point_of_interest", "establishment"], "vicinity": "1 Wholesale Centre, #01-02, Singapore"}, {"business_status": "OPERATIONAL", "geometry": {"location": {"lat": 1.2796163, "lng": 103.7860689}, "viewport": {"northeast": {"lat": 1.280947680291502, "lng": 103.7875477802915}, "southwest": {"lat": 1.278249719708498, "lng": 103.7848498197085}}}, "icon": "https://maps.gstatic.com/mapfiles/place_api/icons/v1/png_71/restaurant-71.png", "icon_background_color": "#FF9E67", "icon_mask_base_uri": "https://maps.gstatic.com/mapfiles/place_api/icons/v2/restaurant_pinlet", "name": "Takushnku Service", "opening_hours": {"open_now": false}, "place_id": "ChIJj4ruWqUb2jERW9ftpaYMmnw", "plus_code": {"compound_code": "7QHP+RC Singapore", "global_code": "6PH57QHP+RC"}, "reference": "ChIJj4ruWqUb2jERW9ftpaYMmnw", "scope": "GOOGLE", "types": ["restaurant", "food", "point_of_interest", "establishment"], "vicinity": "3 South Buona Vista Road"}, {"business_status": "CLOSED_TEMPORARILY", "geometry": {"location": {"lat": 1.2797197, "lng": 103.7859924}, "viewport": {"northeast": {"lat": 1.281143680291502, "lng": 103.7874661302915}, "southwest": {"lat": 1.278445719708498, "lng": 103.7847681697085}}}, "icon": "https://maps.gstatic.com/mapfiles/place_api/icons/v1/png_71/restaurant-71.png", "icon_background_color": "#FF9E67", "icon_mask_base_uri": "https://maps.gstatic.com/mapfiles/place_api/icons/v2/restaurant_pinlet", "name": "Eat Fit Meal Prep", "permanently_closed": true, "photos": [{"height": 752, "html_attributions": ["<a href=\"https://maps.google.com/maps/contrib/115189608393022652126\">Eat Fit Meal Prep</a>"], "photo_reference": "Aaw_FcLOve8OGizir5O4_JmUHIL8VKfAj4HIDIqD7AQXkJgrBzoY9-DrluWPtzTEOWYdERWcduNJ6ROyMaTaxIpljMIrSBw5w5UYTnZG5nUInZIJFJ6n9s_g3Ydm1VfYrhCGXZUqwr840U14ErQsiJ0hfFqIdsUz6JU9MSYPxsIdU0C2wVO_", "width": 1344}], "place_id": "ChIJleO_ehAY2jERndRFIdZSPjA", "plus_code": {"compound_code": "7QHP+V9 Singapore", "global_code": "6PH57QHP+V9"}, "rating": 4.3, "reference": "ChIJleO_ehAY2jERndRFIdZSPjA", "scope": "GOOGLE", "types": ["restaurant", "food", "point_of_interest", "establishment"], "user_ratings_total": 11, "vicinity": "3 South Buona Vista Road, #B1-04 Viva Vista"}, {"business_status": "OPERATIONAL", "geometry": {"location": {"lat": 1.2928572, "lng": 103.7685899}, "viewport": {"northeast": {"lat": 1.294254680291502, "lng": 103.7698927802915}, "southwest": {"lat": 1.291556719708498, "lng": 103.7671948197085}}}, "icon": "https://maps.gstatic.com/mapfiles/place_api/icons/v1/png_71/restaurant-71.png", "icon_background_color": "#FF9E67", "icon_mask_base_uri": "https://maps.gstatic.com/mapfiles/place_api/icons/v2/restaurant_pinlet", "name": "Niqqi's The Cheese Prata Shop", "opening_hours": {"open_now": true}, "photos": [{"height": 3072, "html_attributions": ["<a href=\"https://maps.google.com/maps/contrib/115086655103873779488\">Peter Chong</a>"], "photo_reference": "Aaw_FcKGDVczx5PUnE3FNNftKKXm8JeLxnNM7meuOys305bjZllSwE3R-NRGojMtOLGl0k-WRUT-2XCcyHJJiBt3xKn7PDNjxOIjhKpANJiIMwsvRK7SaUkJNHe6WJl6vd79tip7LqBTGzxryVM7pq_7jumIFtOz1pmZW23sLZmMyNh2vcQ2", "width": 4080}], "place_id": "ChIJS44NPfwa2jERH1ygoIgk05w", "plus_code": {"compound_code": "7QV9+4C Singapore", "global_code": "6PH57QV9+4C"}, "price_level": 1, "rating": 3.8, "reference": "ChIJS44NPfwa2jERH1ygoIgk05w", "scope": "GOOGLE", "types": ["restaurant", "food", "point_of_interest", "establishment"], "user_ratings_total": 841, "vicinity": "16 Clementi Road"}, {"business_status": "OPERATIONAL", "geometry": {"location": {"lat": 1.2636803, "lng": 103.7858003}, "viewport": {"northeast": {"lat": 1.265012430291502, "lng": 103.7871795802915}, "southwest": {"lat": 1.262314469708498, "lng": 103.7844816197085}}}, "icon": "https://maps.gstatic.com/mapfiles/place_api/icons/v1/png_71/restaurant-71.png", "icon_background_color": "#FF9E67", "icon_mask_base_uri": "https://maps.gstatic.com/mapfiles/place_api/icons/v2/restaurant_pinlet", "name": "Pasir Panjang Terminal 5 Canteen", "opening_hours": {"open_now": false}, "photos": [{"height": 2988, "html_attributions": ["<a href=\"https://maps.google.com/maps/contrib/111119238478720614350\">Derrick Liaw</a>"], "photo_reference": "Aaw_FcJfrgCASUc_PO79tYIKUCmJcvzSQ553KJeEC8NifNCxSjPO3jKB5oxEcSHpwsNIGCWPqg_QVzk0Vju4Pyg209Id5E1nHaGARNiO8pNpR-_Jni4eoZHro5P1nhrtPJd_PUzThVXDc_9oxCr1hUtS6vTZ99G85zHqjRqa4KIn05lg2dNI", "width": 5312}], "place_id": "ChIJKSnlY5ob2jERYrd3VyCJCuA", "plus_code": {"compound_code": "7Q7P+F8 Singapore", "global_code": "6PH57Q7P+F8"}, "rating": 3.7, "reference": "ChIJKSnlY5ob2jERYrd3VyCJCuA", "scope": "GOOGLE", "types": ["restaurant", "food", "point_of_interest", "establishment"], "user_ratings_total": 257, "vicinity": "Singapore"}, {"business_status": "OPERATIONAL", "geometry": {"location": {"lat": 1.2927526, "lng": 103.7684987}, "viewport": {"northeast": {"lat": 1.294163830291502, "lng": 103.7698300802915}, "southwest": {"lat": 1.291465869708498, "lng": 103.7671321197085}}}, "icon": "https://maps.gstatic.com/mapfiles/place_api/icons/v1/png_71/restaurant-71.png", "icon_background_color": "#FF9E67", "icon_mask_base_uri": "https://maps.gstatic.com/mapfiles/place_api/icons/v2/restaurant_pinlet", "name": "Al Amaan Restaurant", "opening_hours": {"open_now": true}, "photos": [{"height": 2268, "html_attributions": ["<a href=\"https://maps.google.com/maps/contrib/112403987693678430009\">Ivan Lam</a>"], "photo_reference": "Aaw_FcK4Nw6ykx8HI8yoUmRo_J3vbyXT8B0_GOMLVhBNpJMObR0Epfb24Z2oJ7XH0x2iaL_tp1cE80lar7QIMV2Tk5tPRiPFFilmWhfATAMZug8E5ArnNilUgA1X0pLfbhKmIXOKGsq-YGbvfKLLJo5cEsCzWgoYbpa5KvrXKL0m8SoiOt4", "width": 4032}], "place_id": "ChIJpbpdPPwa2jER3qzoPX12xE8", "plus_code": {"compound_code": "7QV9+49 Singapore", "global_code": "6PH57QV9+49"}, "price_level": 1, "rating": 4.1, "reference": "ChIJpbpdPPwa2jER3qzoPX12xE8", "scope": "GOOGLE", "types": ["restaurant", "food", "point_of_interest", "establishment"], "user_ratings_total": 1206, "vicinity": "12 Clementi Road"}, {"business_status": "OPERATIONAL", "geometry": {"location": {"lat": 1.292738, "lng": 103.76257}, "viewport": {"northeast": {"lat": 1.294001430291502, "lng": 103.7638687802915}, "southwest": {"lat": 1.291303469708498, "lng": 103.7611708197085}}}, "icon": "https://maps.gstatic.com/mapfiles/place_api/icons/v1/png_71/restaurant-71.png", "icon_background_color": "#FF9E67", "icon_mask_base_uri": "https://maps.gstatic.com/mapfiles/place_api/icons/v2/restaurant_pinlet", "name": "Banquets", "place_id": "ChIJu7MGPOMa2jERVDH1f6yrEm4", "plus_code": {"compound_code": "7QV7+32 Singapore", "global_code": "6PH57QV7+32"}, "reference": "ChIJu7MGPOMa2jERVDH1f6yrEm4", "scope": "GOOGLE", "types": ["restaurant", "food", "point_of_interest", "establishment"], "vicinity": "52 West Coast Ferry Road"}, {"business_status": "OPERATIONAL", "geometry": {"location": {"lat": 1.2926833, "lng": 103.7626794}, "viewport": {"northeast": {"lat": 1.293943180291502, "lng": 103.7639761302915}, "southwest": {"lat": 1.291245219708498, "lng": 103.7612781697085}}}, "icon": "https://maps.gstatic.com/mapfiles/place_api/icons/v1/png_71/restaurant-71.png", "icon_background_color": "#FF9E67", "icon_mask_base_uri": "https://maps.gstatic.com/mapfiles/place_api/icons/v2/restaurant_pinlet", "name": "Sausalito Restaurant & Bar", "opening_hours": {"open_now": false}, "photos": [{"height": 2908, "html_attributions": ["<a href=\"https://maps.google.com/maps/contrib/114289280382849271292\">Lai Allan</a>"], "photo_reference": "Aaw_FcK77Yvw5n7ASwvWGx056OAyT8qXxZ7AMSirPWeeoIXHyx4VR_MjmsJNMxEWvaaclv1JczTGdNGvWQ3i9RoImR7zb-ATjdEt5KqcuAPedi25IM56GEHG82Jl23LjGBZ1DDcmp5mwLPbN-wLFB1PHF3Rc-T16pj2AgbRfGYvnZ5RCfWYF", "width": 4021}], "place_id": "ChIJX4ShGFEb2jERYM6SvDrzII4", "plus_code": {"compound_code": "7QV7+33 Singapore", "global_code": "6PH57QV7+33"}, "rating": 4.6, "reference": "ChIJX4ShGFEb2jERYM6SvDrzII4", "scope": "GOOGLE", "types": ["restaurant", "food", "point_of_interest", "establishment"], "user_ratings_total": 51, "vicinity": "West Coast Ferry Road, Level 2 Republic of Singapore Yacht Club, 52"}, {"business_status": "CLOSED_TEMPORARILY", "geometry": {"location": {"lat": 1.2839272, "lng": 103.7781012}, "viewport": {"northeast": {"lat": 1.285200130291502, "lng": 103.7794062802915}, "southwest": {"lat": 1.282502169708498, "lng": 103.7767083197085}}}, "icon": "https://maps.gstatic.com/mapfiles/place_api/icons/v1/png_71/restaurant-71.png", "icon_background_color": "#FF9E67", "icon_mask_base_uri": "https://maps.gstatic.com/mapfiles/place_api/icons/v2/restaurant_pinlet", "name": "Hao Yun Foodstuffs", "permanently_closed": true, "place_id": "ChIJpxnunakb2jERWFoqx9e14mo", "plus_code": {"compound_code": "7QMH+H6 Singapore", "global_code": "6PH57QMH+H6"}, "reference": "ChIJpxnunakb2jERWFoqx9e14mo", "scope": "GOOGLE", "types": ["restaurant", "food", "point_of_interest", "establishment"], "vicinity": "Pasir Panjang Wholesale Centre, 17 Pasir Panjang Wholesale Centre, #01-117, Singapore"}, {"business_status": "OPERATIONAL", "geometry": {"location": {"lat": 1.3056926, "lng": 103.7315575}, "viewport": {"northeast": {"lat": 1.307155430291502, "lng": 103.7327345802915}, "southwest": {"lat": 1.304457469708498, "lng": 103.7300366197085}}}, "icon": "https://maps.gstatic.com/mapfiles/place_api/icons/v1/png_71/restaurant-71.png", "icon_background_color": "#FF9E67", "icon_mask_base_uri": "https://maps.gstatic.com/mapfiles/place_api/icons/v2/restaurant_pinlet", "name": "Zhonghe Town Restaurant", "opening_hours": {"open_now": true}, "photos": [{"height": 3024, "html_attributions": ["<a href=\"https://maps.google.com/maps/contrib/110687871487557983807\">J Li</a>"], "photo_reference": "Aaw_FcJbIf6F07XBzjTyKwukXdhDdVp1BNPtSqxVNkqL2pX9CycwQNvqSMplzkw7oXEyZ1Yn4r9Yc_PJSSgbbEwrKG_o4WjjJ2B7g0oPX9CyqqS0vizDkqDc2YtG58DDFV0dkOT3iIZRgkfCHgynyAGSZ2FmdXmZhpOr1EHqsAGwSh5EdtRv", "width": 4032}], "place_id": "ChIJH1JbAvMb2jERtSaQXkh2w78", "plus_code": {"compound_code": "8P4J+7J Singapore", "global_code": "6PH58P4J+7J"}, "rating": 3.1, "reference": "ChIJH1JbAvMb2jERtSaQXkh2w78", "scope": "GOOGLE", "types": ["restaurant", "food", "point_of_interest", "establishment"], "user_ratings_total": 43, "vicinity": "SG, 42A Penjuru Road, #02-00"}, {"business_status": "OPERATIONAL", "geometry": {"location": {"lat": 1.28309, "lng": 103.7795021}, "viewport": {"northeast": {"lat": 1.284506730291502, "lng": 103.7808452802915}, "southwest": {"lat": 1.281808769708498, "lng": 103.7781473197085}}}, "icon": "https://maps.gstatic.com/mapfiles/place_api/icons/v1/png_71/restaurant-71.png", "icon_background_color": "#FF9E67", "icon_mask_base_uri": "https://maps.gstatic.com/mapfiles/place_api/icons/v2/restaurant_pinlet", "name": "Hotbake 24/7 - Sandwich Vending Machine", "opening_hours": {"open_now": true}, "photos": [{"height": 4032, "html_attributions": ["<a href=\"https://maps.google.com/maps/contrib/103186799883216817010\">Michael Pasko</a>"], "photo_reference": "Aaw_FcLZheBQRbNurWCcRDUO6-zoI-ClPWQuLWtrpquFX5jK1v-yjnxoV4B6m5nNNKJIYrnoJDvanmnaZTca9eID1eN9l82GQMOIWbDf_2FPfX5awy7OtrEBTqSa3-3Y1zHakYT8OVsC_2LkoLxJKiVi5kX7ogSYH1hIpJuiUbhLQ7PuldRn", "width": 3024}], "place_id": "ChIJLzOvfz4b2jERl6GJ9GxJBnA", "plus_code": {"compound_code": "7QMH+6R Singapore", "global_code": "6PH57QMH+6R"}, "reference": "ChIJLzOvfz4b2jERl6GJ9GxJBnA", "scope": "GOOGLE", "types": ["restaurant", "food", "point_of_interest", "establishment"], "vicinity": "Harbour Drive"}, {"business_status": "OPERATIONAL", "geometry": {"location": {"lat": 1.3059879, "lng": 103.7314513}, "viewport": {"northeast": {"lat": 1.307365830291502, "lng": 103.7327119802915}, "southwest": {"lat": 1.304667869708498, "lng": 103.7300140197085}}}, "icon": "https://maps.gstatic.com/mapfiles/place_api/icons/v1/png_71/restaurant-71.png", "icon_background_color": "#FF9E67", "icon_mask_base_uri": "https://maps.gstatic.com/mapfiles/place_api/icons/v2/restaurant_pinlet", "name": "Heart-Shaped Hotpot In A Tent", "place_id": "ChIJb2svcvgb2jER3HaVTjoZdlk", "plus_code": {"compound_code": "8P4J+9H Singapore", "global_code": "6PH58P4J+9H"}, "reference": "ChIJb2svcvgb2jER3HaVTjoZdlk", "scope": "GOOGLE", "types": ["restaurant", "food", "point_of_interest", "establishment"], "vicinity": "42A Penjuru Road, Level 2, Singapore"}, {"business_status": "OPERATIONAL", "geometry": {"location": {"lat": 1.2827629, "lng": 103.7803122}, "viewport": {"northeast": {"lat": 1.284043780291502, "lng": 103.7817217302915}, "southwest": {"lat": 1.281345819708498, "lng": 103.7790237697085}}}, "icon": "https://maps.gstatic.com/mapfiles/place_api/icons/v1/png_71/restaurant-71.png", "icon_background_color": "#FF9E67", "icon_mask_base_uri": "https://maps.gstatic.com/mapfiles/place_api/icons/v2/restaurant_pinlet", "name": "The Mermaid", "opening_hours": {"open_now": true}, "photos": [{"height": 3472, "html_attributions": ["<a href=\"https://maps.google.com/maps/contrib/104191728771436079291\">Gayan Chathuranga Jayaweera</a>"], "photo_reference": "Aaw_FcK3BZ6Mbmt51zq_EgIbhDmEX9NR5Zfxvdb3GRBkGPzUY04u_rzs13vkwCA_NC-hftQ03ch6V8sYOIlUcoomarAn-lTozIzp704-RINBGJwKMjE-8my2lV-FXTBpyoSa4aUVtcamtulGdhAzvl0LoLmfgQNMDS2vs0LLwKwUCKTdK7z-", "width": 4640}], "place_id": "ChIJ4x2BTLwb2jERIn49QgWOJyo", "plus_code": {"compound_code": "7QMJ+44 Singapore", "global_code": "6PH57QMJ+44"}, "rating": 4.9, "reference": "ChIJ4x2BTLwb2jERIn49QgWOJyo", "scope": "GOOGLE", "types": ["restaurant", "food", "point_of_interest", "establishment"], "user_ratings_total": 37, "vicinity": "27 West Coast Highway, #01-14"}, {"business_status": "OPERATIONAL", "geometry": {"location": {"lat": 1.2924096, "lng": 103.7683459}, "viewport": {"northeast": {"lat": 1.293874080291502, "lng": 103.7696101302915}, "southwest": {"lat": 1.291176119708498, "lng": 103.7669121697085}}}, "icon": "https://maps.gstatic.com/mapfiles/place_api/icons/v1/png_71/restaurant-71.png", "icon_background_color": "#FF9E67", "icon_mask_base_uri": "https://maps.gstatic.com/mapfiles/place_api/icons/v2/restaurant_pinlet", "name": "Pham Quyen Vietnamese Cuisine @ Pasir Panjang Rd", "opening_hours": {"open_now": true}, "photos": [{"height": 1200, "html_attributions": ["<a href=\"https://maps.google.com/maps/contrib/107143584507526735309\">Pham Quyen Vietnamese Cuisine @ Pasir Panjang Rd</a>"], "photo_reference": "Aaw_FcLlJwe5KAgrnu5BFJG4eReGswF_tyd76_5wrDl73ZUJHDIq3SrFj7M-RBt_GWDtElnTcPWErLjlsmxdXGuG7uls3W59bsqUScBIW_hBJwDB4GFnLcLuvm2ShAchuXYbadr5bl8um0tGtdSfrVomgifwWCRlHyJ60lLPTF7iIS4K0Lgs", "width": 1599}], "place_id": "ChIJbesWllsb2jEReOXvjJuR8h8", "plus_code": {"compound_code": "7QR9+X8 Singapore", "global_code": "6PH57QR9+X8"}, "rating": 4.5, "reference": "ChIJbesWllsb2jEReOXvjJuR8h8", "scope": "GOOGLE", "types": ["restaurant", "food", "point_of_interest", "establishment"], "user_ratings_total": 281, "vicinity": "440 Pasir Panjang Road"}, {"business_status": "OPERATIONAL", "geometry": {"location": {"lat": 1.2924497, "lng": 103.7683135}, "viewport": {"northeast": {"lat": 1.293846280291502, "lng": 103.7695965302915}, "southwest": {"lat": 1.291148319708498, "lng": 103.7668985697085}}}, "icon": "https://maps.gstatic.com/mapfiles/place_api/icons/v1/png_71/restaurant-71.png", "icon_background_color": "#FF9E67", "icon_mask_base_uri": "https://maps.gstatic.com/mapfiles/place_api/icons/v2/restaurant_pinlet", "name": "Dario Pizza & More", "opening_hours": {"open_now": false}, "photos": [{"height": 3840, "html_attributions": ["<a href=\"https://maps.google.com/maps/contrib/113348377169958786098\">Dario Pizza &amp; More</a>"], "photo_reference": "Aaw_FcISNPkOi1iMemhvz5N4vA9frbnmuM1tpOwAN0wbDBqLihq4JiDuncIyH7dHS8m6qBkavnokNjnTHXu0z1QPO5TqndWj8AqwcQRUVEW8DEB1hlimR0JwLVFdiJtLW2X63S8LmIlS43MRkELfZ-dsdid3CYW1bo52DbqcF_7763RymlbL", "width": 5760}], "place_id": "ChIJSV6OO_wa2jERdnMz-qR7XXo", "plus_code": {"compound_code": "7QR9+X8 Singapore", "global_code": "6PH57QR9+X8"}, "price_level": 2, "rating": 4.4, "reference": "ChIJSV6OO_wa2jERdnMz-qR7XXo", "scope": "GOOGLE", "types": ["grocery_or_supermarket", "restaurant", "food", "store", "point_of_interest", "establishment"], "user_ratings_total": 410, "vicinity": "6 Clementi Road"}, {"business_status": "OPERATIONAL", "geometry": {"location": {"lat": 1.292429, "lng": 103.768382}, "viewport": {"northeast": {"lat": 1.293883780291502, "lng": 103.7696392302915}, "southwest": {"lat": 1.291185819708498, "lng": 103.7669412697085}}}, "icon": "https://maps.gstatic.com/mapfiles/place_api/icons/v1/png_71/restaurant-71.png", "icon_background_color": "#FF9E67", "icon_mask_base_uri": "https://maps.gstatic.com/mapfiles/place_api/icons/v2/restaurant_pinlet", "name": "Haryati's", "opening_hours": {"open_now": false}, "photos": [{"height": 1221, "html_attributions": ["<a href=\"https://maps.google.com/maps/contrib/116362304118454231634\">Haryati&#39;s</a>"], "photo_reference": "Aaw_FcI8he_ME7kLwNtRFka5atRyjltA7aE7JfQW5Ib93ssQkQq40nkUaufRjLl916daPGZKVoBf5yO2KsBlx0MI4Uznqopy0o0qE9RTrUdvvAOjout0OJGO5ILAN1C6vWYG_hw08_Ja8uFKfVoumIfJ_3OX1FtQGLm7rSxi-awYNq3aI46c", "width": 670}], "place_id": "ChIJramb6Igb2jER64Eg2tifCr8", "plus_code": {"compound_code": "7QR9+X9 Singapore", "global_code": "6PH57QR9+X9"}, "rating": 4.6, "reference": "ChIJramb6Igb2jER64Eg2tifCr8", "scope": "GOOGLE", "types": ["restaurant", "food", "point_of_interest", "establishment"], "user_ratings_total": 27, "vicinity": "438 Pasir Panjang Road"}, {"business_status": "OPERATIONAL", "geometry": {"location": {"lat": 1.2926045, "lng": 103.7683724}, "viewport": {"northeast": {"lat": 1.293988530291502, "lng": 103.7696728302915}, "southwest": {"lat": 1.291290569708498, "lng": 103.7669748697085}}}, "icon": "https://maps.gstatic.com/mapfiles/place_api/icons/v1/png_71/restaurant-71.png", "icon_background_color": "#FF9E67", "icon_mask_base_uri": "https://maps.gstatic.com/mapfiles/place_api/icons/v2/restaurant_pinlet", "name": "Taiwanese-Style Gourmet Porridge", "opening_hours": {"open_now": false}, "place_id": "ChIJdaaTO_wa2jERKt43grpGDVc", "plus_code": {"compound_code": "7QV9+28 Singapore", "global_code": "6PH57QV9+28"}, "rating": 2, "reference": "ChIJdaaTO_wa2jERKt43grpGDVc", "scope": "GOOGLE", "types": ["restaurant", "food", "point_of_interest", "establishment"], "user_ratings_total": 1, "vicinity": "6 Clementi Road"}, {"business_status": "OPERATIONAL", "geometry": {"location": {"lat": 1.28292, "lng": 103.78048}, "viewport": {"northeast": {"lat": 1.284387280291502, "lng": 103.7820289802915}, "southwest": {"lat": 1.281689319708498, "lng": 103.7793310197085}}}, "icon": "https://maps.gstatic.com/mapfiles/place_api/icons/v1/png_71/restaurant-71.png", "icon_background_color": "#FF9E67", "icon_mask_base_uri": "https://maps.gstatic.com/mapfiles/place_api/icons/v2/restaurant_pinlet", "name": "88 Seafood", "opening_hours": {"open_now": false}, "photos": [{"height": 1287, "html_attributions": ["<a href=\"https://maps.google.com/maps/contrib/115481619794267498412\">88 Seafood</a>"], "photo_reference": "Aaw_FcJPa3Rmb1lkzNxcoGgNbpXn6J05P5bEq433ZcoEoOaU19ImDwBvHSNxbN5j5Jhq3n9FvwE4jhQnR5TMvbQnKB-tcE_wWSaZyarN05dFehWpNHA0VFPTdDUbn0RKiFYssEnPPMElSnYDZVFqkj9zkXTYGTLWIot08lEkp2vEXQ0Q7whq", "width": 2183}], "place_id": "ChIJsdtvKvQb2jERSCd1FovDxtQ", "plus_code": {"compound_code": "7QMJ+55 Singapore", "global_code": "6PH57QMJ+55"}, "rating": 4.3, "reference": "ChIJsdtvKvQb2jERSCd1FovDxtQ", "scope": "GOOGLE", "types": ["restaurant", "food", "point_of_interest", "establishment"], "user_ratings_total": 18, "vicinity": "27 West Coast Highway, #01-12"}, {"business_status": "OPERATIONAL", "geometry": {"location": {"lat": 1.282969, "lng": 103.780543}, "viewport": {"northeast": {"lat": 1.284397680291502, "lng": 103.7820620802915}, "southwest": {"lat": 1.281699719708498, "lng": 103.7793641197085}}}, "icon": "https://maps.gstatic.com/mapfiles/place_api/icons/v1/png_71/restaurant-71.png", "icon_background_color": "#FF9E67", "icon_mask_base_uri": "https://maps.gstatic.com/mapfiles/place_api/icons/v2/restaurant_pinlet", "name": "Char Fragrance ( \u70ad\u9999) Live Frog Porridge", "opening_hours": {"open_now": true}, "photos": [{"height": 2268, "html_attributions": ["<a href=\"https://maps.google.com/maps/contrib/105086746994129087189\">Steven Lee</a>"], "photo_reference": "Aaw_FcKFEegSfiCohA50gSyhJQGxfW8i0xiCvYiekWUfERO4LbTc4DOh9D6ueIaELcsT4L6jVo9-q6pCv7_aeqjrlngS1-gMoF4x3rULyfGFQ9ElMy1ZgtBDTJPN-2WYc9rm23zwAb6bXk2nAxrmPngwnS5AcTezYLgqJATFgZkRqRHzTpRz", "width": 4032}], "place_id": "ChIJRa6Awvwb2jERccJgaX2Acm4", "plus_code": {"compound_code": "7QMJ+56 Singapore", "global_code": "6PH57QMJ+56"}, "rating": 4.9, "reference": "ChIJRa6Awvwb2jERccJgaX2Acm4", "scope": "GOOGLE", "types": ["restaurant", "food", "point_of_interest", "establishment"], "user_ratings_total": 7, "vicinity": "27 West Coast Highway, #01-11"}, {"business_status": "CLOSED_TEMPORARILY", "geometry": {"location": {"lat": 1.282969, "lng": 103.780543}, "viewport": {"northeast": {"lat": 1.284419530291502, "lng": 103.7820721302915}, "southwest": {"lat": 1.281721569708498, "lng": 103.7793741697085}}}, "icon": "https://maps.gstatic.com/mapfiles/place_api/icons/v1/png_71/restaurant-71.png", "icon_background_color": "#FF9E67", "icon_mask_base_uri": "https://maps.gstatic.com/mapfiles/place_api/icons/v2/restaurant_pinlet", "name": "Tuck Kee Frog Porridge", "permanently_closed": true, "photos": [{"height": 2160, "html_attributions": ["<a href=\"https://maps.google.com/maps/contrib/110048426959939860167\">Tuck Kee Frog Porridge</a>"], "photo_reference": "Aaw_FcJS3gFt1V6ylIgJWbCoSZbBZzyWfxAbkrpVbWI8GBpbmjC_gj7x35qRm4KWm5Neq52a0bCX0qxK3e1LgXX3AG69V8yPSi4NAuFVW12jyFlsciaMbHjxq_m_KpSzShhcOgf9OHHPYJLVN9zUlwSg8ZXc7g0txRGPL7qKnofMyTnRKKa8", "width": 3840}], "place_id": "ChIJeQ3UTKwZ2jERPyBEdBbazd8", "plus_code": {"compound_code": "7QMJ+56 Singapore", "global_code": "6PH57QMJ+56"}, "rating": 4.5, "reference": "ChIJeQ3UTKwZ2jERPyBEdBbazd8", "scope": "GOOGLE", "types": ["restaurant", "food", "point_of_interest", "establishment"], "user_ratings_total": 23, "vicinity": "27 West Coast Highway, #01-11"}, {"business_status": "OPERATIONAL", "geometry": {"location": {"lat": 1.2830764, "lng": 103.7806052}, "viewport": {"northeast": {"lat": 1.284434680291502, "lng": 103.7820124802915}, "southwest": {"lat": 1.281736719708498, "lng": 103.7793145197085}}}, "icon": "https://maps.gstatic.com/mapfiles/place_api/icons/v1/png_71/restaurant-71.png", "icon_background_color": "#FF9E67", "icon_mask_base_uri": "https://maps.gstatic.com/mapfiles/place_api/icons/v2/restaurant_pinlet", "name": "Kinn Derm", "opening_hours": {"open_now": true}, "photos": [{"height": 960, "html_attributions": ["<a href=\"https://maps.google.com/maps/contrib/108277588704128825890\">Kinn Derm</a>"], "photo_reference": "Aaw_FcJp1CUtU6cejgfnAhLTy7OKmwYel5Op5XWEwbNuWkDP4YRQZTLKFUggnDCEg70C9_DNQS9mEOhMjeYm07wmoe_mk4Medg_JpLfSVLUAJM24k-2nNiLvQhq9n0nCoZp9-aP9BziG8IXsznes1u_YQHkINKUhY7TfokeQH6doFh1xVFKd", "width": 768}], "place_id": "ChIJuVKfHNIb2jERb_4VY2WutpQ", "plus_code": {"compound_code": "7QMJ+66 Singapore", "global_code": "6PH57QMJ+66"}, "rating": 4.1, "reference": "ChIJuVKfHNIb2jERb_4VY2WutpQ", "scope": "GOOGLE", "types": ["restaurant", "food", "point_of_interest", "establishment"], "user_ratings_total": 60, "vicinity": "27 West Coast Highway, #01-01"}, {"business_status": "OPERATIONAL", "geometry": {"location": {"lat": 1.2830764, "lng": 103.7806052}, "viewport": {"northeast": {"lat": 1.284434680291502, "lng": 103.7820124802915}, "southwest": {"lat": 1.281736719708498, "lng": 103.7793145197085}}}, "icon": "https://maps.gstatic.com/mapfiles/place_api/icons/v1/png_71/restaurant-71.png", "icon_background_color": "#FF9E67", "icon_mask_base_uri": "https://maps.gstatic.com/mapfiles/place_api/icons/v2/restaurant_pinlet", "name": "Coastal Acoustic", "opening_hours": {"open_now": true}, "photos": [{"height": 3000, "html_attributions": ["<a href=\"https://maps.google.com/maps/contrib/102779766764269863375\">William Ow</a>"], "photo_reference": "Aaw_FcJLwTsfw6dxpG-CbYq6XVW8ZydJvwjpBGV304UG8nzbrYDFfGWlvqBDG_hRacF-UCvPBC6OarBiVqhtssb6JeU46ysjP4rK7sSYyNdY3i3wvWfS06GyLMM0iMWTl3hBKIrZcHSeG_fZrIWKJCSTcZOF0B56ZOgeKaDm6zyAvsWjUU8O", "width": 4000}], "place_id": "ChIJjaaQr_wb2jER6K-DtNZ7Yns", "plus_code": {"compound_code": "7QMJ+66 Singapore", "global_code": "6PH57QMJ+66"}, "rating": 4.9, "reference": "ChIJjaaQr_wb2jER6K-DtNZ7Yns", "scope": "GOOGLE", "types": ["restaurant", "food", "point_of_interest", "establishment"], "user_ratings_total": 124, "vicinity": "27 West Coast Highway, #01-08/09"}, {"business_status": "OPERATIONAL", "geometry": {"location": {"lat": 1.2830764, "lng": 103.7806052}, "viewport": {"northeast": {"lat": 1.284434680291502, "lng": 103.7820124802915}, "southwest": {"lat": 1.281736719708498, "lng": 103.7793145197085}}}, "icon": "https://maps.gstatic.com/mapfiles/place_api/icons/v1/png_71/restaurant-71.png", "icon_background_color": "#FF9E67", "icon_mask_base_uri": "https://maps.gstatic.com/mapfiles/place_api/icons/v2/restaurant_pinlet", "name": "Mo's Grill and Bar", "opening_hours": {"open_now": true}, "photos": [{"height": 2268, "html_attributions": ["<a href=\"https://maps.google.com/maps/contrib/105086746994129087189\">Steven Lee</a>"], "photo_reference": "Aaw_FcJNgWSnlA3eh8oaMqYp2Cay3ACFMzKGDU4CXin4dZGk_2nJAJRdX0R8Si2ucvQiIX-RSzmOuZZokjjdo291HtmSsGfSe0TRNioDXHaTmPWc9YNJzpPH2lAMVbpDxrG3UL3b52Y2-dq0pC7N5hR5Ko6jdU2JihocOl8VF3D1jR7UqwSi", "width": 4032}], "place_id": "ChIJQfdWPnEb2jER0Niz2LHMtaY", "plus_code": {"compound_code": "7QMJ+66 Singapore", "global_code": "6PH57QMJ+66"}, "rating": 4.6, "reference": "ChIJQfdWPnEb2jER0Niz2LHMtaY", "scope": "GOOGLE", "types": ["restaurant", "food", "point_of_interest", "establishment"], "user_ratings_total": 54, "vicinity": "27 West Coast Highway, #01-04"}, {"business_status": "OPERATIONAL", "geometry": {"location": {"lat": 1.2830764, "lng": 103.7806052}, "viewport": {"northeast": {"lat": 1.284434680291502, "lng": 103.7820124802915}, "southwest": {"lat": 1.281736719708498, "lng": 103.7793145197085}}}, "icon": "https://maps.gstatic.com/mapfiles/place_api/icons/v1/png_71/restaurant-71.png", "icon_background_color": "#FF9E67", "icon_mask_base_uri": "https://maps.gstatic.com/mapfiles/place_api/icons/v2/restaurant_pinlet", "name": "Volta Bistro", "opening_hours": {"open_now": true}, "photos": [{"height": 3024, "html_attributions": ["<a href=\"https://maps.google.com/maps/contrib/107058315797125531999\">Jane Goh</a>"], "photo_reference": "Aaw_FcLT3pjAO-559-JvSGevSxM8UTx4u0PO-295WCeBi8j_SP8ImrAVsiFUKnIjZuRvpb_uD5UC7Fku3brFAp_7AN_Mt-BmuQYNdJnDR6-WLROlJg7eW03uh2AwHK-hDLoaG5jmr0OycX-muhw8aWoSttADh8zwkWkSvn5QqI5QyXWp0Tw", "width": 4032}], "place_id": "ChIJJVd0jNEb2jER5E621hKhmoA", "plus_code": {"compound_code": "7QMJ+66 Singapore", "global_code": "6PH57QMJ+66"}, "rating": 5, "reference": "ChIJJVd0jNEb2jER5E621hKhmoA", "scope": "GOOGLE", "types": ["restaurant", "food", "point_of_interest", "establishment"], "user_ratings_total": 7, "vicinity": "27 West Coast Highway, #01-02/03"}, {"business_status": "OPERATIONAL", "geometry": {"location": {"lat": 1.2831852, "lng": 103.7805348}, "viewport": {"northeast": {"lat": 1.284616280291502, "lng": 103.7819878302915}, "southwest": {"lat": 1.281918319708498, "lng": 103.7792898697085}}}, "icon": "https://maps.gstatic.com/mapfiles/place_api/icons/v1/png_71/restaurant-71.png", "icon_background_color": "#FF9E67", "icon_mask_base_uri": "https://maps.gstatic.com/mapfiles/place_api/icons/v2/restaurant_pinlet", "name": "Komezu Japanese Bistro", "opening_hours": {"open_now": false}, "photos": [{"height": 3024, "html_attributions": ["<a href=\"https://maps.google.com/maps/contrib/117915067896971004736\">Komezu Japanese Bistro</a>"], "photo_reference": "Aaw_FcJdBt_h5hyq0Bvqxg80k1Q2BgOo4NJsOoQPWJE1QkWDo46j2CwZr-U9IyYaGf9ey-rNbpViG2jGkD9CpqM1TxpMeBWDcOh3I_3OQx2Q5yifAe_IoLvX9F7EjCu56HeFyR07W-rOjIHCmheuWFR4eE5IezW-nj1oC1M44lbTOa9sQkdE", "width": 4032}], "place_id": "ChIJT1Itg7Eb2jER--ZJN1cu_90", "plus_code": {"compound_code": "7QMJ+76 Singapore", "global_code": "6PH57QMJ+76"}, "rating": 4.7, "reference": "ChIJT1Itg7Eb2jER--ZJN1cu_90", "scope": "GOOGLE", "types": ["restaurant", "food", "point_of_interest", "establishment"], "user_ratings_total": 13, "vicinity": "27 West Coast Highway, #01-06A"}, {"business_status": "OPERATIONAL", "geometry": {"location": {"lat": 1.2831852, "lng": 103.7805348}, "viewport": {"northeast": {"lat": 1.284616280291502, "lng": 103.7819878302915}, "southwest": {"lat": 1.281918319708498, "lng": 103.7792898697085}}}, "icon": "https://maps.gstatic.com/mapfiles/place_api/icons/v1/png_71/bar-71.png", "icon_background_color": "#FF9E67", "icon_mask_base_uri": "https://maps.gstatic.com/mapfiles/place_api/icons/v2/bar_pinlet", "name": "LE WHITE BAR", "opening_hours": {"open_now": true}, "photos": [{"height": 1536, "html_attributions": ["<a href=\"https://maps.google.com/maps/contrib/106377235355037997533\">LE WHITE BAR</a>"], "photo_reference": "Aaw_FcI5udVwiTVsr-BsRa6ssaZyekWdueqBBP5z1gCiQQ88gpJK356mnnLvAKb0tPvR9e67WfBvwgIaJxEH7BMDI0ilk33MgfQsBaSp46fZVBEoRx8FekftVqwqAzoKLo_Kx5_ShZnO6vbjLK47Kx84IJZp-67YMtFMBWPMoNUMx-wrMpmv", "width": 2048}], "place_id": "ChIJZ4JqKmgb2jEROuOzh5z42no", "plus_code": {"compound_code": "7QMJ+76 Singapore", "global_code": "6PH57QMJ+76"}, "rating": 5, "reference": "ChIJZ4JqKmgb2jEROuOzh5z42no", "scope": "GOOGLE", "types": ["night_club", "restaurant", "food", "bar", "point_of_interest", "establishment"], "user_ratings_total": 5, "vicinity": "27 West Coast Highway, #01-05"}, {"business_status": "OPERATIONAL", "geometry": {"location": {"lat": 1.2830562, "lng": 103.7807279}, "viewport": {"northeast": {"lat": 1.284462280291502, "lng": 103.7821645802915}, "southwest": {"lat": 1.281764319708498, "lng": 103.7794666197085}}}, "icon": "https://maps.gstatic.com/mapfiles/place_api/icons/v1/png_71/restaurant-71.png", "icon_background_color": "#FF9E67", "icon_mask_base_uri": "https://maps.gstatic.com/mapfiles/place_api/icons/v2/restaurant_pinlet", "name": "Onui Pte. Ltd.", "opening_hours": {"open_now": false}, "place_id": "ChIJ8Yy0Makb2jERzNrED7wcrjo", "plus_code": {"compound_code": "7QMJ+67 Singapore", "global_code": "6PH57QMJ+67"}, "reference": "ChIJ8Yy0Makb2jERzNrED7wcrjo", "scope": "GOOGLE", "types": ["restaurant", "food", "point_of_interest", "establishment"], "vicinity": "Singapore"}, {"business_status": "OPERATIONAL", "geometry": {"location": {"lat": 1.2799254, "lng": 103.7861966}, "viewport": {"northeast": {"lat": 1.281193080291502, "lng": 103.7875599802915}, "southwest": {"lat": 1.278495119708498, "lng": 103.7848620197085}}}, "icon": "https://maps.gstatic.com/mapfiles/place_api/icons/v1/png_71/restaurant-71.png", "icon_background_color": "#FF9E67", "icon_mask_base_uri": "https://maps.gstatic.com/mapfiles/place_api/icons/v2/restaurant_pinlet", "name": "HooHa Cafe", "opening_hours": {"open_now": true}, "photos": [{"height": 3412, "html_attributions": ["<a href=\"https://maps.google.com/maps/contrib/118100640360831225044\">samlivestoeat</a>"], "photo_reference": "Aaw_FcJ9u21jyF_NjFoBdM9zxWHbjx06O0JN39ioPpIm81FyCBig4QbZlk9lQaP4ExHNEsOMNsKPhuNTVcZ3RTKbNBfp-uJywUQVBfNEJsUH-Ix4_tmMEqSG2iRSk11dk91qjqxNFe8AWFWjgDgfoQ73eJdmUMpEHGbvG6qR_YZfJQFFVuUS", "width": 2730}], "place_id": "ChIJ08b9RKUb2jER4HbtO6l_RIg", "plus_code": {"compound_code": "7QHP+XF Singapore", "global_code": "6PH57QHP+XF"}, "rating": 4.3, "reference": "ChIJ08b9RKUb2jER4HbtO6l_RIg", "scope": "GOOGLE", "types": ["restaurant", "cafe", "food", "point_of_interest", "establishment"], "user_ratings_total": 44, "vicinity": "3 South Buona Vista Road, #B1-06 Viva Vista Mall"}, {"business_status": "OPERATIONAL", "geometry": {"location": {"lat": 1.2928599, "lng": 103.7685723}, "viewport": {"northeast": {"lat": 1.294244830291502, "lng": 103.7698752302915}, "southwest": {"lat": 1.291546869708498, "lng": 103.7671772697085}}}, "icon": "https://maps.gstatic.com/mapfiles/place_api/icons/v1/png_71/restaurant-71.png", "icon_background_color": "#FF9E67", "icon_mask_base_uri": "https://maps.gstatic.com/mapfiles/place_api/icons/v2/restaurant_pinlet", "name": "Ng Kuan Chilli Pan Mee", "opening_hours": {"open_now": true}, "photos": [{"height": 3024, "html_attributions": ["<a href=\"https://maps.google.com/maps/contrib/102356130350151358102\">Mingzhe Du</a>"], "photo_reference": "Aaw_FcI2yNuwSi7pCDLQNZIWcFG315ZWnU58Syv1E-C8QxMJuE_DiMc1u_VfI_Z8HtKFRGxkJZRXkWKHgh196cJno3bxCe-qCmlSwFkh_UmEid9xBHvnQydMn3-xGZDc3_EMYC7F0YoYVY8LPIzJFhGIWAByFn7RA7PMuWHS8dvW2EJzWs3u", "width": 4032}], "place_id": "ChIJAdfC64Eb2jER3oDzHANGy7w", "plus_code": {"compound_code": "7QV9+4C Singapore", "global_code": "6PH57QV9+4C"}, "rating": 3.7, "reference": "ChIJAdfC64Eb2jER3oDzHANGy7w", "scope": "GOOGLE", "types": ["restaurant", "food", "point_of_interest", "establishment"], "user_ratings_total": 30, "vicinity": "Clementi Road, #14"}, {"business_status": "OPERATIONAL", "geometry": {"location": {"lat": 1.2929497, "lng": 103.7686889}, "viewport": {"northeast": {"lat": 1.294345880291502, "lng": 103.7699773802915}, "southwest": {"lat": 1.291647919708498, "lng": 103.7672794197085}}}, "icon": "https://maps.gstatic.com/mapfiles/place_api/icons/v1/png_71/restaurant-71.png", "icon_background_color": "#FF9E67", "icon_mask_base_uri": "https://maps.gstatic.com/mapfiles/place_api/icons/v2/restaurant_pinlet", "name": "Formosa Delights", "opening_hours": {"open_now": true}, "photos": [{"height": 3648, "html_attributions": ["<a href=\"https://maps.google.com/maps/contrib/101345161135004060754\">Shiro Tan</a>"], "photo_reference": "Aaw_FcLxmSjWXmkTXz3a6nhd3AWO0VxXXAhzGyFg2ouaWZkCQv_VpnsQhhZQQ0Hyh10cGU6k_fOBQoACnVPMpgDVLMoxkbxeudDqGfmqcwH4VYRjuQHPsiZ_khOjYHtIFk-6szp9OCg6gD9j86pFW7mmDTBzgCaQPCTUtNZL7A8N813KvjfK", "width": 2736}], "place_id": "ChIJB6_SPfwa2jERhWb0-pMgLRo", "plus_code": {"compound_code": "7QV9+5F Singapore", "global_code": "6PH57QV9+5F"}, "price_level": 2, "rating": 4.2, "reference": "ChIJB6_SPfwa2jERhWb0-pMgLRo", "scope": "GOOGLE", "types": ["restaurant", "food", "point_of_interest", "establishment"], "user_ratings_total": 456, "vicinity": "20 Clementi Road"}, {"business_status": "OPERATIONAL", "geometry": {"location": {"lat": 1.2929977, "lng": 103.7687169}, "viewport": {"northeast": {"lat": 1.294391580291502, "lng": 103.7700083302915}, "southwest": {"lat": 1.291693619708498, "lng": 103.7673103697085}}}, "icon": "https://maps.gstatic.com/mapfiles/place_api/icons/v1/png_71/restaurant-71.png", "icon_background_color": "#FF9E67", "icon_mask_base_uri": "https://maps.gstatic.com/mapfiles/place_api/icons/v2/restaurant_pinlet", "name": "Fong Seng Nasi Lemak", "opening_hours": {"open_now": true}, "photos": [{"height": 2448, "html_attributions": ["<a href=\"https://maps.google.com/maps/contrib/103607115546021225928\">Wong C.L.</a>"], "photo_reference": "Aaw_FcKryt_tFnY5qo5IWtec9wpjpebBBURqN8GjSx6B6Wu1lR4ZbfKnAvosg_VESWb3RdaefJJh5MyGQCZtACAKKZFLhPrTWjelzZiaoc634kmW8xIWi8uDBE9SMgxUveYxfm-h-Syf7zIHl0pVnRoS4ZlQPnmZvvaSho9GDV6kE154FVvK", "width": 3264}], "place_id": "ChIJGSYcGPwa2jER4SlFZ31tdxQ", "plus_code": {"compound_code": "7QV9+5F Singapore", "global_code": "6PH57QV9+5F"}, "price_level": 1, "rating": 4.1, "reference": "ChIJGSYcGPwa2jER4SlFZ31tdxQ", "scope": "GOOGLE", "types": ["restaurant", "food", "point_of_interest", "establishment"], "user_ratings_total": 992, "vicinity": "22 Clementi Road"}, {"business_status": "OPERATIONAL", "geometry": {"location": {"lat": 1.2930409, "lng": 103.7687545}, "viewport": {"northeast": {"lat": 1.294437680291502, "lng": 103.7700463802915}, "southwest": {"lat": 1.291739719708498, "lng": 103.7673484197085}}}, "icon": "https://maps.gstatic.com/mapfiles/place_api/icons/v1/png_71/restaurant-71.png", "icon_background_color": "#FF9E67", "icon_mask_base_uri": "https://maps.gstatic.com/mapfiles/place_api/icons/v2/restaurant_pinlet", "name": "Hong Kong Kitchen", "opening_hours": {"open_now": true}, "photos": [{"height": 4032, "html_attributions": ["<a href=\"https://maps.google.com/maps/contrib/110329338589671240164\">Stanley Chia</a>"], "photo_reference": "Aaw_FcIcSI-JBwKooy_OO124m2DwweH7FrszQBVy8kiXvScrWedBNYGhoKGA6SqNuG4IuG7OgXKqx-DsV9CNULDrvspQjlhVk8zszeAdWLrjOap_WU83X79UimgBHn69kPPA-yQlFn8uHTAcSOVn8drmF8eb7JBz5gVp9RiXVN0eV2kZO0HZ", "width": 3024}], "place_id": "ChIJD2KRPfwa2jERpjI_2ZxVBRA", "plus_code": {"compound_code": "7QV9+6G Singapore", "global_code": "6PH57QV9+6G"}, "rating": 3.5, "reference": "ChIJD2KRPfwa2jERpjI_2ZxVBRA", "scope": "GOOGLE", "types": ["restaurant", "food", "point_of_interest", "establishment"], "user_ratings_total": 187, "vicinity": "24 Clementi Road"}, {"business_status": "OPERATIONAL", "geometry": {"location": {"lat": 1.2853884, "lng": 103.778933}, "viewport": {"northeast": {"lat": 1.286657480291502, "lng": 103.7802207802915}, "southwest": {"lat": 1.283959519708498, "lng": 103.7775228197085}}}, "icon": "https://maps.gstatic.com/mapfiles/place_api/icons/v1/png_71/restaurant-71.png", "icon_background_color": "#FF9E67", "icon_mask_base_uri": "https://maps.gstatic.com/mapfiles/place_api/icons/v2/restaurant_pinlet", "name": "Ken Venture Investment Pte. Ltd.", "photos": [{"height": 4032, "html_attributions": ["<a href=\"https://maps.google.com/maps/contrib/101134730955043941848\">\u8463\u4eae\u4eae</a>"], "photo_reference": "Aaw_FcI6v2j6o4B5uueqD3lmPNixFCkaNuaYwTMR5LBOhWb4jfyYI5f23POaDNbK2Ji_hC8yOtlo59CVvPorVQkjPr7T5X6t8M6g4KBOT1kmxToGvTVdE4yHoSmgkQ8Q-yZjVEOj1-eMrqfaLHevCRZCo1YAIVdvGAQnr33bvTRoeUz4Ttq8", "width": 3024}], "place_id": "ChIJDVtFxasb2jERxW2BA6Z4qtE", "plus_code": {"compound_code": "7QPH+5H Singapore", "global_code": "6PH57QPH+5H"}, "reference": "ChIJDVtFxasb2jERxW2BA6Z4qtE", "scope": "GOOGLE", "types": ["restaurant", "food", "point_of_interest", "establishment"], "vicinity": "1 Wholesale Centre"}, {"business_status": "OPERATIONAL", "geometry": {"location": {"lat": 1.2851017, "lng": 103.7793378}, "viewport": {"northeast": {"lat": 1.286363480291502, "lng": 103.7806200302915}, "southwest": {"lat": 1.283665519708498, "lng": 103.7779220697085}}}, "icon": "https://maps.gstatic.com/mapfiles/place_api/icons/v1/png_71/restaurant-71.png", "icon_background_color": "#FF9E67", "icon_mask_base_uri": "https://maps.gstatic.com/mapfiles/place_api/icons/v2/restaurant_pinlet", "name": "Hungry boy", "opening_hours": {"open_now": false}, "photos": [{"height": 1868, "html_attributions": ["<a href=\"https://maps.google.com/maps/contrib/106362365819131587750\">Goh choon seong</a>"], "photo_reference": "Aaw_FcIb68KGUuACCIbK5EgPVhP7pUzvKs043ADTcdpiwd7AmqoMIVopnSTnGR9RHQugmJBlX9oa_8D-0zw8ohObwBij9uPw-g4dnP_HGUtvuGnbggCcNU6BWD3K5KvbQVbeWHZ3awE5WFOwEe21F5gBFNrFI7byt-cXa_i7bmnzyVXwxfxw", "width": 4000}], "place_id": "ChIJz29g-RYb2jERkRxFJLavPGY", "plus_code": {"compound_code": "7QPH+2P Singapore", "global_code": "6PH57QPH+2P"}, "rating": 4, "reference": "ChIJz29g-RYb2jERkRxFJLavPGY", "scope": "GOOGLE", "types": ["restaurant", "food", "point_of_interest", "establishment"], "user_ratings_total": 4, "vicinity": "blk 1 Wholesale Centre, #01-02"}, {"business_status": "OPERATIONAL", "geometry": {"location": {"lat": 1.2862168, "lng": 103.7781471}, "viewport": {"northeast": {"lat": 1.287414080291502, "lng": 103.7793799802915}, "southwest": {"lat": 1.284716119708498, "lng": 103.7766820197085}}}, "icon": "https://maps.gstatic.com/mapfiles/place_api/icons/v1/png_71/restaurant-71.png", "icon_background_color": "#FF9E67", "icon_mask_base_uri": "https://maps.gstatic.com/mapfiles/place_api/icons/v2/restaurant_pinlet", "name": "\u98df\u5148\u8c50\u6d3b\u6d77\u9c9c", "place_id": "ChIJYV76tVIb2jERNJkJBipdjXI", "plus_code": {"compound_code": "7QPH+F7 Singapore", "global_code": "6PH57QPH+F7"}, "reference": "ChIJYV76tVIb2jERNJkJBipdjXI", "scope": "GOOGLE", "types": ["restaurant", "food", "point_of_interest", "establishment"], "vicinity": "Blk 1 Pasir Panjang Road, Wholesale Centre, #01-02 Pasir Panjang"}, {"business_status": "OPERATIONAL", "geometry": {"location": {"lat": 1.2851555, "lng": 103.7793841}, "viewport": {"northeast": {"lat": 1.286389180291502, "lng": 103.7806447802915}, "southwest": {"lat": 1.283691219708498, "lng": 103.7779468197085}}}, "icon": "https://maps.gstatic.com/mapfiles/place_api/icons/v1/png_71/restaurant-71.png", "icon_background_color": "#FF9E67", "icon_mask_base_uri": "https://maps.gstatic.com/mapfiles/place_api/icons/v2/restaurant_pinlet", "name": "Shi Xian Feng Live Seafood \u98df\u9c9c\u4e30\u6d3b\u6d77\u9c9c\u716e\u7092", "opening_hours": {"open_now": false}, "photos": [{"height": 802, "html_attributions": ["<a href=\"https://maps.google.com/maps/contrib/101134730955043941848\">\u8463\u4eae\u4eae</a>"], "photo_reference": "Aaw_FcI_TKpGfodQlCMHTvXWnhPTcaI7ExDzfo-Qlyf8BSCp1-YmcyJkfE2jWX4ZwX-TgnWxCNUK25EisGoWHKgZY7yE6sk30Rer25p3NurahO_cn2UKQJUiYL48vo7k-nPKmw2qcpMvBo2W_MTWF33qdShdTMucPKuQCJj4oaa1NTriElM6", "width": 1024}], "place_id": "ChIJhyqrNasb2jERZKLS_LKtAS8", "plus_code": {"compound_code": "7QPH+3Q Singapore", "global_code": "6PH57QPH+3Q"}, "rating": 3.5, "reference": "ChIJhyqrNasb2jERZKLS_LKtAS8", "scope": "GOOGLE", "types": ["restaurant", "food", "point_of_interest", "establishment"], "user_ratings_total": 6, "vicinity": "1 Wholesale Centre, Singapore"}, {"business_status": "CLOSED_TEMPORARILY", "geometry": {"location": {"lat": 1.308133, "lng": 103.722354}, "viewport": {"northeast": {"lat": 1.309287330291502, "lng": 103.7234670802915}, "southwest": {"lat": 1.306589369708498, "lng": 103.7207691197085}}}, "icon": "https://maps.gstatic.com/mapfiles/place_api/icons/v1/png_71/restaurant-71.png", "icon_background_color": "#FF9E67", "icon_mask_base_uri": "https://maps.gstatic.com/mapfiles/place_api/icons/v2/restaurant_pinlet", "name": "Brimond Enterprise", "permanently_closed": true, "place_id": "ChIJkdlHGzYF2jER9lwbQXFraoM", "plus_code": {"compound_code": "8P5C+7W Singapore", "global_code": "6PH58P5C+7W"}, "reference": "ChIJkdlHGzYF2jER9lwbQXFraoM", "scope": "GOOGLE", "types": ["restaurant", "food", "point_of_interest", "establishment"], "vicinity": "15 Jalan Tepong"}, {"business_status": "OPERATIONAL", "geometry": {"location": {"lat": 1.279336, "lng": 103.785891}, "viewport": {"northeast": {"lat": 1.280651630291502, "lng": 103.7871279302915}, "southwest": {"lat": 1.277953669708498, "lng": 103.7844299697085}}}, "icon": "https://maps.gstatic.com/mapfiles/place_api/icons/v1/png_71/restaurant-71.png", "icon_background_color": "#FF9E67", "icon_mask_base_uri": "https://maps.gstatic.com/mapfiles/place_api/icons/v2/restaurant_pinlet", "name": "Aida Caterindo", "place_id": "ChIJ7yr3RKUb2jERvPod0OjEwv8", "plus_code": {"compound_code": "7QHP+P9 Singapore", "global_code": "6PH57QHP+P9"}, "reference": "ChIJ7yr3RKUb2jERvPod0OjEwv8", "scope": "GOOGLE", "types": ["restaurant", "food", "point_of_interest", "establishment"], "vicinity": "222 Pasir Panjang Road"}, {"business_status": "OPERATIONAL", "geometry": {"location": {"lat": 1.2796312, "lng": 103.7856762}, "viewport": {"northeast": {"lat": 1.280961280291502, "lng": 103.7869707802915}, "southwest": {"lat": 1.278263319708498, "lng": 103.7842728197085}}}, "icon": "https://maps.gstatic.com/mapfiles/place_api/icons/v1/png_71/restaurant-71.png", "icon_background_color": "#FF9E67", "icon_mask_base_uri": "https://maps.gstatic.com/mapfiles/place_api/icons/v2/restaurant_pinlet", "name": "Curry Paradise", "opening_hours": {"open_now": false}, "photos": [{"height": 1585, "html_attributions": ["<a href=\"https://maps.google.com/maps/contrib/114319043356418165812\">Irene E. Devadason</a>"], "photo_reference": "Aaw_FcJU8DRaJt7I_p8m-7tHY_zht3vlE6wsQwSTH35RFtgnXOqyihEtQFkau4Rf_sIWZ9cimj8jI4AC1oqz39mtol9e6kBkLunXuCwaGqqoiFZ7SBBRjYjB8CCQz_utmB5Z6Ns50lO6jprx7d57clkDxT64z0-gyH8nZ7QUfCNknbpK6woa", "width": 3185}], "place_id": "ChIJpQiGY54b2jERv98ZCFmqiyA", "plus_code": {"compound_code": "7QHP+V7 Singapore", "global_code": "6PH57QHP+V7"}, "rating": 4.3, "reference": "ChIJpQiGY54b2jERv98ZCFmqiyA", "scope": "GOOGLE", "types": ["restaurant", "food", "point_of_interest", "establishment"], "user_ratings_total": 101, "vicinity": "218 Pasir Panjang Road, #01-12"}, {"business_status": "OPERATIONAL", "geometry": {"location": {"lat": 1.2892213, "lng": 103.7755524}, "viewport": {"northeast": {"lat": 1.290799180291502, "lng": 103.7769735802915}, "southwest": {"lat": 1.288101219708498, "lng": 103.7742756197085}}}, "icon": "https://maps.gstatic.com/mapfiles/place_api/icons/v1/png_71/restaurant-71.png", "icon_background_color": "#FF9E67", "icon_mask_base_uri": "https://maps.gstatic.com/mapfiles/place_api/icons/v2/restaurant_pinlet", "name": "Rainforest Culinary Pte. Ltd.", "place_id": "ChIJwdSVq6ob2jERoI2CXQc1fjs", "plus_code": {"compound_code": "7QQG+M6 Singapore", "global_code": "6PH57QQG+M6"}, "reference": "ChIJwdSVq6ob2jERoI2CXQc1fjs", "scope": "GOOGLE", "types": ["restaurant", "food", "point_of_interest", "establishment"], "vicinity": "351 Pasir Panjang Road, Singapore"}, {"business_status": "OPERATIONAL", "geometry": {"location": {"lat": 1.3087948, "lng": 103.7223626}, "viewport": {"northeast": {"lat": 1.310019630291502, "lng": 103.7236594802915}, "southwest": {"lat": 1.307321669708498, "lng": 103.7209615197085}}}, "icon": "https://maps.gstatic.com/mapfiles/place_api/icons/v1/png_71/restaurant-71.png", "icon_background_color": "#FF9E67", "icon_mask_base_uri": "https://maps.gstatic.com/mapfiles/place_api/icons/v2/restaurant_pinlet", "name": "L & L Food Supply", "opening_hours": {"open_now": false}, "place_id": "ChIJZ_ao5EkF2jERiMsOO-Q14sc", "plus_code": {"compound_code": "8P5C+GW Singapore", "global_code": "6PH58P5C+GW"}, "reference": "ChIJZ_ao5EkF2jERiMsOO-Q14sc", "scope": "GOOGLE", "types": ["restaurant", "food", "point_of_interest", "establishment"], "vicinity": "Jalan Tepong, #06-04, 619336 No. 15"}, {"business_status": "OPERATIONAL", "geometry": {"location": {"lat": 1.3087948, "lng": 103.7223626}, "viewport": {"northeast": {"lat": 1.310019630291502, "lng": 103.7236594802915}, "southwest": {"lat": 1.307321669708498, "lng": 103.7209615197085}}}, "icon": "https://maps.gstatic.com/mapfiles/place_api/icons/v1/png_71/restaurant-71.png", "icon_background_color": "#FF9E67", "icon_mask_base_uri": "https://maps.gstatic.com/mapfiles/place_api/icons/v2/restaurant_pinlet", "name": "PAUL SINGAPORE PTE LTD", "photos": [{"height": 4000, "html_attributions": ["<a href=\"https://maps.google.com/maps/contrib/111538759908943632607\">Chlovic Yeoh</a>"], "photo_reference": "Aaw_FcLSP4L7XQE03SyMNX-46EcpByavlnrJGQHjwv7KZB4AR46NlIkOLzE46LIayoWI3SDtvbqdnMMwQFjbfEcoZqBIDrSvDw7DhihDSMPCtQp_8ynV6B9jFs5M6xBrVH0-UmIMuB74Xe4lvXpWfzxPnDT06cuepv7YU4Dxw3As3rSgikhc", "width": 3000}], "place_id": "ChIJx4BPEzYF2jERNRAhASL6zh8", "plus_code": {"compound_code": "8P5C+GW Singapore", "global_code": "6PH58P5C+GW"}, "rating": 2.8, "reference": "ChIJx4BPEzYF2jERNRAhASL6zh8", "scope": "GOOGLE", "types": ["restaurant", "food", "point_of_interest", "establishment"], "user_ratings_total": 6, "vicinity": "15 Jalan Tepong"}, {"business_status": "OPERATIONAL", "geometry": {"location": {"lat": 1.3089324, "lng": 103.7222195}, "viewport": {"northeast": {"lat": 1.310311480291502, "lng": 103.7233806802915}, "southwest": {"lat": 1.307613519708498, "lng": 103.7206827197085}}}, "icon": "https://maps.gstatic.com/mapfiles/place_api/icons/v1/png_71/restaurant-71.png", "icon_background_color": "#FF9E67", "icon_mask_base_uri": "https://maps.gstatic.com/mapfiles/place_api/icons/v2/restaurant_pinlet", "name": "La Toscana Pte Ltd", "opening_hours": {"open_now": false}, "photos": [{"height": 1890, "html_attributions": ["<a href=\"https://maps.google.com/maps/contrib/116495992746370870847\">cse1217</a>"], "photo_reference": "Aaw_FcJnJVrjw15Neo_wZyYv86KwXbKzGyssHDHssczzNHibaqAty5ejRK6y29J7X1235FS50f_zM7M-YxOmLzJ3rfB0SBp9mqJLo_k-921O5Voe_DYTEy6VBB78xwcMkNjosZoMTAVfQuwZ0N0nR1M2XULHDIFnXZ1sD3NZSEEFuak37Ybb", "width": 3072}], "place_id": "ChIJHZwtBBgF2jERwBX0c8CSqc0", "plus_code": {"compound_code": "8P5C+HV Singapore", "global_code": "6PH58P5C+HV"}, "rating": 3, "reference": "ChIJHZwtBBgF2jERwBX0c8CSqc0", "scope": "GOOGLE", "types": ["restaurant", "food", "point_of_interest", "establishment"], "user_ratings_total": 1, "vicinity": "15 Jalan Tepong, #06-06"}, {"business_status": "OPERATIONAL", "geometry": {"location": {"lat": 1.3089324, "lng": 103.7222195}, "viewport": {"northeast": {"lat": 1.310311480291502, "lng": 103.7233806802915}, "southwest": {"lat": 1.307613519708498, "lng": 103.7206827197085}}}, "icon": "https://maps.gstatic.com/mapfiles/place_api/icons/v1/png_71/restaurant-71.png", "icon_background_color": "#FF9E67", "icon_mask_base_uri": "https://maps.gstatic.com/mapfiles/place_api/icons/v2/restaurant_pinlet", "name": "Kwong Chow Mee Mfr", "place_id": "ChIJq0CqM8sX2jERe26aDTUfuY0", "plus_code": {"compound_code": "8P5C+HV Singapore", "global_code": "6PH58P5C+HV"}, "reference": "ChIJq0CqM8sX2jERe26aDTUfuY0", "scope": "GOOGLE", "types": ["restaurant", "food", "point_of_interest", "establishment"], "vicinity": "15 Jalan Tepong, #05-05, Singapore"}, {"business_status": "OPERATIONAL", "geometry": {"location": {"lat": 1.2801035, "lng": 103.7856146}, "viewport": {"northeast": {"lat": 1.281433580291502, "lng": 103.7869098802915}, "southwest": {"lat": 1.278735619708498, "lng": 103.7842119197085}}}, "icon": "https://maps.gstatic.com/mapfiles/place_api/icons/v1/png_71/restaurant-71.png", "icon_background_color": "#FF9E67", "icon_mask_base_uri": "https://maps.gstatic.com/mapfiles/place_api/icons/v2/restaurant_pinlet", "name": "D\u00e9lifrance Pasir Panjang", "place_id": "ChIJucJX94cb2jERHgmJeUKbFgo", "plus_code": {"compound_code": "7QJP+26 Singapore", "global_code": "6PH57QJP+26"}, "rating": 4, "reference": "ChIJucJX94cb2jERHgmJeUKbFgo", "scope": "GOOGLE", "types": ["restaurant", "food", "point_of_interest", "establishment"], "user_ratings_total": 1, "vicinity": "242A Pasir Panjang Road"}, {"business_status": "OPERATIONAL", "geometry": {"location": {"lat": 1.2797197, "lng": 103.7859924}, "viewport": {"northeast": {"lat": 1.281143680291502, "lng": 103.7874661302915}, "southwest": {"lat": 1.278445719708498, "lng": 103.7847681697085}}}, "icon": "https://maps.gstatic.com/mapfiles/place_api/icons/v1/png_71/restaurant-71.png", "icon_background_color": "#FF9E67", "icon_mask_base_uri": "https://maps.gstatic.com/mapfiles/place_api/icons/v2/restaurant_pinlet", "name": "WakaMama 100% Vegan & Gluten-Free | Tasting Menu Chef Table | Fermented Raw Vegan", "opening_hours": {"open_now": false}, "photos": [{"height": 1714, "html_attributions": ["<a href=\"https://maps.google.com/maps/contrib/116196650237117198881\">WakaMama 100% Vegan &amp; Gluten-Free | Tasting Menu Chef Table | Fermented Raw Vegan</a>"], "photo_reference": "Aaw_FcJjRC_XTQvzweSk0ND3FJZrxUXAN1gQiEC6Obg6tQZQHEA5YrMHXg7rNlaT6LEsAWy7BizIKpGhm9pf-KxSXef3CKQR7IeRlqYL9PzK1D-IM1KsbLD7liL9s3zGt4_6xsXW4hCImGBrHHI9V9NuWidEBedJEctr87maia5x6I-3iGiu", "width": 1284}], "place_id": "ChIJ_Wma4YQb2jERAthljNsxKqE", "plus_code": {"compound_code": "7QHP+V9 Singapore", "global_code": "6PH57QHP+V9"}, "rating": 4.8, "reference": "ChIJ_Wma4YQb2jERAthljNsxKqE", "scope": "GOOGLE", "types": ["bar", "restaurant", "food", "store", "point_of_interest", "establishment"], "user_ratings_total": 90, "vicinity": "3 South Buona Vista Road, #01-28 Viva Vista Mall"}, {"business_status": "OPERATIONAL", "geometry": {"location": {"lat": 1.296121, "lng": 103.766207}, "viewport": {"northeast": {"lat": 1.297149980291502, "lng": 103.7676855302915}, "southwest": {"lat": 1.294452019708498, "lng": 103.7649875697085}}}, "icon": "https://maps.gstatic.com/mapfiles/place_api/icons/v1/png_71/restaurant-71.png", "icon_background_color": "#FF9E67", "icon_mask_base_uri": "https://maps.gstatic.com/mapfiles/place_api/icons/v2/restaurant_pinlet", "name": "Edokko Food", "opening_hours": {"open_now": false}, "photos": [{"height": 3264, "html_attributions": ["<a href=\"https://maps.google.com/maps/contrib/103965173215902707626\">Edokko Food</a>"], "photo_reference": "Aaw_FcJmteAPWKlpd9s45257cD8h1-UAktWQpNtYIN6jp_J2HICN6ymgbXEZpqOICn05YaK0ZMqzxTx4GZ2xw_fLTFCrELgg9GTw1E_z55_p4t7oLyQjN6NRKtJGcmK9X-yZYxFPE8Kp9SLLUyoFFihwMyI9MpHS_9JY_VmQ2ICSYlQC1flo", "width": 2448}], "place_id": "ChIJb_cpBPsa2jERuOVHqtWhntU", "plus_code": {"compound_code": "7QW8+CF Singapore", "global_code": "6PH57QW8+CF"}, "reference": "ChIJb_cpBPsa2jERuOVHqtWhntU", "scope": "GOOGLE", "types": ["restaurant", "food", "point_of_interest", "establishment"], "vicinity": "57 West Coast Road"}, {"business_status": "OPERATIONAL", "geometry": {"location": {"lat": 1.2497222, "lng": 103.8241667}, "viewport": {"northeast": {"lat": 1.251142080291502, "lng": 103.8255468802915}, "southwest": {"lat": 1.248444119708498, "lng": 103.8228489197085}}}, "icon": "https://maps.gstatic.com/mapfiles/place_api/icons/v1/png_71/lodging-71.png", "icon_background_color": "#909CE1", "icon_mask_base_uri": "https://maps.gstatic.com/mapfiles/place_api/icons/v2/hotel_pinlet", "name": "Capella Singapore", "opening_hours": {"open_now": true}, "photos": [{"height": 440, "html_attributions": ["<a href=\"https://maps.google.com/maps/contrib/103050464860540643200\">Capella Singapore</a>"], "photo_reference": "Aaw_FcIQ47FqGjCOKpKZZTChP_qn3RdQ6LsW5LbNHMApGQ4zD0bExkFtjnFcLTMwzs-KJlaQ8QAoHOYcZuH9ZS3xe-ZFW4U-Al5LZBHpWqbPPYebJ1C_y5L_XtrzoYJFo_xo7OxQow2sZr3d-YVdQxanB-L88bfwYrlbl1BgLjkyqTfxRTI8", "width": 654}], "place_id": "ChIJF75fVaoe2jERZYVUuHEz-lQ", "plus_code": {"compound_code": "6RXF+VM Singapore", "global_code": "6PH56RXF+VM"}, "rating": 4.7, "reference": "ChIJF75fVaoe2jERZYVUuHEz-lQ", "scope": "GOOGLE", "types": ["lodging", "restaurant", "food", "point_of_interest", "establishment"], "user_ratings_total": 2107, "vicinity": "1 The Knolls, Sentosa Island"}, {"business_status": "OPERATIONAL", "geometry": {"location": {"lat": 1.243299, "lng": 103.828128}, "viewport": {"northeast": {"lat": 1.244743880291502, "lng": 103.8295314802915}, "southwest": {"lat": 1.242045919708498, "lng": 103.8268335197085}}}, "icon": "https://maps.gstatic.com/mapfiles/place_api/icons/v1/png_71/restaurant-71.png", "icon_background_color": "#FF9E67", "icon_mask_base_uri": "https://maps.gstatic.com/mapfiles/place_api/icons/v2/restaurant_pinlet", "name": "Tanjong Beach Club", "opening_hours": {"open_now": false}, "photos": [{"height": 1066, "html_attributions": ["<a href=\"https://maps.google.com/maps/contrib/103413733408160212801\">Tanjong Beach Club</a>"], "photo_reference": "Aaw_FcJ4nruHvt0ZYXlF3QrKhBbmAg9TELFk933Jm1GwjZ6N-r0IddV1vzYLmFneBZYAlQlw5V2f37lzuOmPdW2ThVpu21OTSKhoHm-kod2TbTF7wusmbNzEyH4_08h2GUyR7S9zGEt-Dm8WReNMqhpNX_KZtkv3xf9ZSfoTrBVyterX0iUv", "width": 1600}], "place_id": "ChIJc6s2rage2jERzvX_e5IB_6k", "plus_code": {"compound_code": "6RVH+87 Singapore", "global_code": "6PH56RVH+87"}, "price_level": 3, "rating": 4.4, "reference": "ChIJc6s2rage2jERzvX_e5IB_6k", "scope": "GOOGLE", "types": ["restaurant", "bar", "food", "point_of_interest", "establishment"], "user_ratings_total": 3258, "vicinity": "120 Tanjong Beach Walk"}, {"business_status": "OPERATIONAL", "geometry": {"location": {"lat": 1.2545239, "lng": 103.8137499}, "viewport": {"northeast": {"lat": 1.255983580291502, "lng": 103.8153915302915}, "southwest": {"lat": 1.253285619708498, "lng": 103.8126935697085}}}, "icon": "https://maps.gstatic.com/mapfiles/place_api/icons/v1/png_71/generic_business-71.png", "icon_background_color": "#7B9EB0", "icon_mask_base_uri": "https://maps.gstatic.com/mapfiles/place_api/icons/v2/generic_pinlet", "name": "Wave House Sentosa", "photos": [{"height": 2048, "html_attributions": ["<a href=\"https://maps.google.com/maps/contrib/103350010532775010215\">Wave House Sentosa</a>"], "photo_reference": "Aaw_FcK3j2zoG0PTC36m8JxJlUIyqzZYdKBO28OYvfu9ynyfP77aM0lwnq5eHEVfRQHRJKj3DOr9NfC-qXNRESv4ORY0RppF9ZxxIXTdSgepmpAh4FLwb7HA64qYND6wGMB5NMX04mpBFtdwlEGBTz1LUBRP6oj3VxHHqVa8TE5IHPoUs9GT", "width": 1360}], "place_id": "ChIJO3EO3_gb2jERT0QaVjJd6hk", "plus_code": {"compound_code": "7R37+RF Singapore", "global_code": "6PH57R37+RF"}, "rating": 4.2, "reference": "ChIJO3EO3_gb2jERT0QaVjJd6hk", "scope": "GOOGLE", "types": ["tourist_attraction", "bar", "restaurant", "food", "point_of_interest", "establishment"], "user_ratings_total": 676, "vicinity": "36 Siloso Beach Walk"}, {"business_status": "OPERATIONAL", "geometry": {"location": {"lat": 1.2634711, "lng": 103.8213037}, "viewport": {"northeast": {"lat": 1.265091230291502, "lng": 103.8224968802915}, "southwest": {"lat": 1.262393269708498, "lng": 103.8197989197085}}}, "icon": "https://maps.gstatic.com/mapfiles/place_api/icons/v1/png_71/restaurant-71.png", "icon_background_color": "#FF9E67", "icon_mask_base_uri": "https://maps.gstatic.com/mapfiles/place_api/icons/v2/restaurant_pinlet", "name": "SUSHI TEI", "opening_hours": {"open_now": false}, "photos": [{"height": 3024, "html_attributions": ["<a href=\"https://maps.google.com/maps/contrib/102353166511687715187\">SomcHun Lim</a>"], "photo_reference": "Aaw_FcIQ1ULy505VIboqY8BoI4XLX8sd1VH5YBa9EOooFTzeiY0PKg8m7ju-rJh8sW2qvxoIvrvUkwYch1SERuMS0L2PgEOVwYdIdpk8Q2HBv094A_qHA8N-ifT5ezS2l2fIadDBP7HHBWmk65Zf_hjI-MptUsShU5dCIV9RdeJaQEoRAVHs", "width": 4032}], "place_id": "ChIJQ7ONulgZ2jERlc6eQgG0Qn4", "plus_code": {"compound_code": "7R7C+9G Singapore", "global_code": "6PH57R7C+9G"}, "price_level": 2, "rating": 4.2, "reference": "ChIJQ7ONulgZ2jERlc6eQgG0Qn4", "scope": "GOOGLE", "types": ["restaurant", "food", "point_of_interest", "establishment"], "user_ratings_total": 800, "vicinity": "1 HarbourFront Walk, #02 - 152"}, {"business_status": "OPERATIONAL", "geometry": {"location": {"lat": 1.2642133, "lng": 103.8198342}, "viewport": {"northeast": {"lat": 1.265744430291502, "lng": 103.8211401802915}, "southwest": {"lat": 1.263046469708498, "lng": 103.8184422197085}}}, "icon": "https://maps.gstatic.com/mapfiles/place_api/icons/v1/png_71/restaurant-71.png", "icon_background_color": "#FF9E67", "icon_mask_base_uri": "https://maps.gstatic.com/mapfiles/place_api/icons/v2/restaurant_pinlet", "name": "Indrawan Cafe", "opening_hours": {"open_now": false}, "place_id": "ChIJVf_IIOMb2jERKRfIV0egmyc", "plus_code": {"compound_code": "7R79+MW Singapore", "global_code": "6PH57R79+MW"}, "reference": "ChIJVf_IIOMb2jERKRfIV0egmyc", "scope": "GOOGLE", "types": ["restaurant", "cafe", "food", "point_of_interest", "establishment"], "vicinity": "1 Maritime Square"}, {"business_status": "OPERATIONAL", "geometry": {"location": {"lat": 1.2650208, "lng": 103.820034}, "viewport": {"northeast": {"lat": 1.266361230291502, "lng": 103.8213167802915}, "southwest": {"lat": 1.263663269708498, "lng": 103.8186188197085}}}, "icon": "https://maps.gstatic.com/mapfiles/place_api/icons/v1/png_71/restaurant-71.png", "icon_background_color": "#FF9E67", "icon_mask_base_uri": "https://maps.gstatic.com/mapfiles/place_api/icons/v2/restaurant_pinlet", "name": "Subway", "opening_hours": {"open_now": false}, "photos": [{"height": 3024, "html_attributions": ["<a href=\"https://maps.google.com/maps/contrib/101905033524146898852\">Vikas</a>"], "photo_reference": "Aaw_FcKPOoMVVw2omjzJ06-QhjBNC-1HW-c5ToNZOaMeHPIzU3_OtSfya4uxJVc0L-QU5ui0b_9Xf5FBNavosnBRnSxCiQVEbBXo68H7VXwrvdTv8kV6hZYJmWGDAsrOfZe0245J0W_UV28HXsk8hARbqLEUoRW_kflMY4PfMtQT2NeXYUgQ", "width": 4032}], "place_id": "ChIJAybKOeIb2jERktSah2QULcE", "plus_code": {"compound_code": "7R8C+22 Singapore", "global_code": "6PH57R8C+22"}, "price_level": 2, "rating": 4.1, "reference": "ChIJAybKOeIb2jERktSah2QULcE", "scope": "GOOGLE", "types": ["restaurant", "food", "point_of_interest", "establishment"], "user_ratings_total": 99, "vicinity": "1 Maritime Square, #02-82 HarbourFront Centre"}, {"business_status": "OPERATIONAL", "geometry": {"location": {"lat": 1.2634018, "lng": 103.8220077}, "viewport": {"northeast": {"lat": 1.26678625, "lng": 103.8238628302915}, "southwest": {"lat": 1.26227365, "lng": 103.8211648697085}}}, "icon": "https://maps.gstatic.com/mapfiles/place_api/icons/v1/png_71/restaurant-71.png", "icon_background_color": "#FF9E67", "icon_mask_base_uri": "https://maps.gstatic.com/mapfiles/place_api/icons/v2/restaurant_pinlet", "name": "Brotzeit German Beer Bar and Restaurant - VivoCity", "opening_hours": {"open_now": true}, "photos": [{"height": 2272, "html_attributions": ["<a href=\"https://maps.google.com/maps/contrib/113563628995879974447\">Kenny Loong</a>"], "photo_reference": "Aaw_FcLmyUmOk-V4lR7ZfSI9QhlreAs3ySliXyUU2ODsv3NT7Jh7ygWrEfmAoom8gIWDO52BRDH-EGnbv702zF7G6xZQasCcl0zBaIv5dMMO3zTb8OWKYSA6E5yGUrL6jxC9muZKI5mk9LowJV7AUyp88-L7w5d2IdurRlaV4uquqebgDR_2", "width": 3877}], "place_id": "ChIJQ7ONulgZ2jERMHtVg8e4VHg", "plus_code": {"compound_code": "7R7C+9R Singapore", "global_code": "6PH57R7C+9R"}, "price_level": 2, "rating": 4.2, "reference": "ChIJQ7ONulgZ2jERMHtVg8e4VHg", "scope": "GOOGLE", "types": ["bar", "restaurant", "food", "point_of_interest", "establishment"], "user_ratings_total": 2528, "vicinity": "1 HarbourFront Walk, #01-149 VivoCity"}, {"business_status": "OPERATIONAL", "geometry": {"location": {"lat": 1.2640172, "lng": 103.8125996}, "viewport": {"northeast": {"lat": 1.265126180291502, "lng": 103.8139565302915}, "southwest": {"lat": 1.262428219708498, "lng": 103.8112585697085}}}, "icon": "https://maps.gstatic.com/mapfiles/place_api/icons/v1/png_71/restaurant-71.png", "icon_background_color": "#FF9E67", "icon_mask_base_uri": "https://maps.gstatic.com/mapfiles/place_api/icons/v2/restaurant_pinlet", "name": "Priv\u00e9 @ Keppel Bay", "opening_hours": {"open_now": true}, "photos": [{"height": 2791, "html_attributions": ["<a href=\"https://maps.google.com/maps/contrib/102915587823438671565\">Priv\u00e9 @ Keppel Bay</a>"], "photo_reference": "Aaw_FcJwTQOM3gj8d__7Aw2f9NxZkczH7GBnQizvJ3ac0-Kv3OrEjg2I0B5vOLcvq3Lh16LN_W8TQSz7w5SiLaYnJFho2M46qwfTao0MTbKFgQh2D_3aaHyMoHEmYwMUVCTT2569ui23ufAgv6NHaewJqZdwleADrLSEx5TL1Nco1vfDkN1V", "width": 4194}], "place_id": "ChIJ4-mQqOUb2jERZwLP65aq0To", "plus_code": {"compound_code": "7R77+J2 Singapore", "global_code": "6PH57R77+J2"}, "price_level": 2, "rating": 4.2, "reference": "ChIJ4-mQqOUb2jERZwLP65aq0To", "scope": "GOOGLE", "types": ["restaurant", "cafe", "food", "point_of_interest", "establishment"], "user_ratings_total": 1747, "vicinity": "2 Keppel Bay Vista"}, {"business_status": "OPERATIONAL", "geometry": {"location": {"lat": 1.2634296, "lng": 103.8219625}, "viewport": {"northeast": {"lat": 1.265082180291502, "lng": 103.8227754802915}, "southwest": {"lat": 1.262384219708498, "lng": 103.8200775197085}}}, "icon": "https://maps.gstatic.com/mapfiles/place_api/icons/v1/png_71/restaurant-71.png", "icon_background_color": "#FF9E67", "icon_mask_base_uri": "https://maps.gstatic.com/mapfiles/place_api/icons/v2/restaurant_pinlet", "name": "Dian Xiao Er (VivoCity)", "opening_hours": {"open_now": false}, "photos": [{"height": 2268, "html_attributions": ["<a href=\"https://maps.google.com/maps/contrib/110298717243237456644\">Satawat Amnuayruangsri</a>"], "photo_reference": "Aaw_FcJPfyc6CiZOXNJkDUtT8e4N7Q50AvL9EzE3DIfvQHO4dR09EKyLdnqbwTYHk95UF2dE6nAQ52vnACxV0OuVpkY8nB2CWxYHwAnM4LMUxwrd3S9ipmJCOE1_Au0zSGxSNLzfN9ftB9wzu-DWSRkNDjh1B3CwPs1xkwYhgUH6ofLBLcqA", "width": 4032}], "place_id": "ChIJQ7ONulgZ2jER2q7WpCC3Ey8", "plus_code": {"compound_code": "7R7C+9Q Singapore", "global_code": "6PH57R7C+9Q"}, "price_level": 2, "rating": 4.3, "reference": "ChIJQ7ONulgZ2jER2q7WpCC3Ey8", "scope": "GOOGLE", "types": ["restaurant", "food", "point_of_interest", "establishment"], "user_ratings_total": 798, "vicinity": "1 HarbourFront Walk, #02-138 9 VivoCity"}, {"business_status": "OPERATIONAL", "geometry": {"location": {"lat": 1.2638161, "lng": 103.8203069}, "viewport": {"northeast": {"lat": 1.265555030291502, "lng": 103.8213771302915}, "southwest": {"lat": 1.262857069708498, "lng": 103.8186791697085}}}, "icon": "https://maps.gstatic.com/mapfiles/place_api/icons/v1/png_71/restaurant-71.png", "icon_background_color": "#FF9E67", "icon_mask_base_uri": "https://maps.gstatic.com/mapfiles/place_api/icons/v2/restaurant_pinlet", "name": "Pastamania", "opening_hours": {"open_now": false}, "photos": [{"height": 3024, "html_attributions": ["<a href=\"https://maps.google.com/maps/contrib/115725392210756907778\">Soo Hin Yeoh</a>"], "photo_reference": "Aaw_FcLbFSzNHufDxXSHHVZk6xkofdzZATMdMTkM0oPYXEstODK9Zh89z3rosVfk-4AU32W54GL2DeVkSL2VAQSvnQBQW1AZ6qGEbcabQ4JNG4TF8dcAq1Kp1xZxu6Uar3wW7_VnEmA2td9US_AN7Ctw11ZvdZE3vzSNWMBsvehuFfNn6d3h", "width": 4032}], "place_id": "ChIJZTd8Z-Ib2jERbWmTLXef5Mk", "plus_code": {"compound_code": "7R7C+G4 Singapore", "global_code": "6PH57R7C+G4"}, "price_level": 2, "rating": 3.7, "reference": "ChIJZTd8Z-Ib2jERbWmTLXef5Mk", "scope": "GOOGLE", "types": ["restaurant", "food", "point_of_interest", "establishment"], "user_ratings_total": 249, "vicinity": "1 Maritime Square, #02-05/06/07 HarbourFront Centre, Singapore"}, {"business_status": "OPERATIONAL", "geometry": {"location": {"lat": 1.2644513, "lng": 103.8213732}, "viewport": {"northeast": {"lat": 1.265790780291502, "lng": 103.8224657302915}, "southwest": {"lat": 1.263092819708498, "lng": 103.8197677697085}}}, "icon": "https://maps.gstatic.com/mapfiles/place_api/icons/v1/png_71/restaurant-71.png", "icon_background_color": "#FF9E67", "icon_mask_base_uri": "https://maps.gstatic.com/mapfiles/place_api/icons/v2/restaurant_pinlet", "name": "March\u00e9 M\u00f6venpick VivoCity", "opening_hours": {"open_now": false}, "photos": [{"height": 608, "html_attributions": ["<a href=\"https://maps.google.com/maps/contrib/113796956145451966725\">March\u00e9 M\u00f6venpick VivoCity</a>"], "photo_reference": "Aaw_FcJjO-b_DAyYNAw8WAju2-tx470kKJNVUtSsYj-8UPbFxODD4qtuvP8-xqEyuK98Lu_RJqAzoUVFYFRt-dOuYRpdYdFlUCPcIFSPwzNsMmfqlcAM4N7twgZLu-7KfBwtuLHwGc4YkRakXslUZEVi5oiPwMRp_5UwVLDrXshAXZSHDA2C", "width": 1080}], "place_id": "ChIJQ7ONulgZ2jERGh2R3w9tHSo", "plus_code": {"compound_code": "7R7C+QG Singapore", "global_code": "6PH57R7C+QG"}, "price_level": 2, "rating": 4.1, "reference": "ChIJQ7ONulgZ2jERGh2R3w9tHSo", "scope": "GOOGLE", "types": ["restaurant", "meal_takeaway", "food", "point_of_interest", "establishment"], "user_ratings_total": 2949, "vicinity": "1 HarbourFront Walk, #03 - 14 VivoCity"}, {"business_status": "OPERATIONAL", "geometry": {"location": {"lat": 1.2635464, "lng": 103.8228073}, "viewport": {"northeast": {"lat": 1.264915680291502, "lng": 103.8241466802915}, "southwest": {"lat": 1.262217719708498, "lng": 103.8214487197085}}}, "icon": "https://maps.gstatic.com/mapfiles/place_api/icons/v1/png_71/restaurant-71.png", "icon_background_color": "#FF9E67", "icon_mask_base_uri": "https://maps.gstatic.com/mapfiles/place_api/icons/v2/restaurant_pinlet", "name": "Tajimaya Yakiniku @ VivoCity", "opening_hours": {"open_now": false}, "photos": [{"height": 3024, "html_attributions": ["<a href=\"https://maps.google.com/maps/contrib/110047634308776686749\">Aries Chong</a>"], "photo_reference": "Aaw_FcLQtbB9ZSzGt5Dj24p4aBbb3Oxc9gUaAiICRmKsXWAYgsuJTVA2Z5x-wjE2ecTPJjaBooWudvxhDHgShUI28Sy-Gt1X142l9oUHHLi28IffJsx3aYm4WJXJJUjEUs6KCM4J6sQCN1RNHg79rOtQp9vu8gyQpw0N6eXnCgTa66ulMESE", "width": 4032}], "place_id": "ChIJQ7ONulgZ2jER5-6qTnhN3eU", "plus_code": {"compound_code": "7R7F+C4 Singapore", "global_code": "6PH57R7F+C4"}, "rating": 3.9, "reference": "ChIJQ7ONulgZ2jER5-6qTnhN3eU", "scope": "GOOGLE", "types": ["restaurant", "food", "point_of_interest", "establishment"], "user_ratings_total": 618, "vicinity": "1 HarbourFront Walk, #01-102/103"}, {"business_status": "OPERATIONAL", "geometry": {"location": {"lat": 1.2633994, "lng": 103.823329}, "viewport": {"northeast": {"lat": 1.264820280291502, "lng": 103.8247164802915}, "southwest": {"lat": 1.262122319708498, "lng": 103.8220185197085}}}, "icon": "https://maps.gstatic.com/mapfiles/place_api/icons/v1/png_71/restaurant-71.png", "icon_background_color": "#FF9E67", "icon_mask_base_uri": "https://maps.gstatic.com/mapfiles/place_api/icons/v2/restaurant_pinlet", "name": "Suki-Ya KIN (\u91d1)", "opening_hours": {"open_now": false}, "photos": [{"height": 3024, "html_attributions": ["<a href=\"https://maps.google.com/maps/contrib/110313005174905579133\">Gerald Ang</a>"], "photo_reference": "Aaw_FcKrE8dZGWNXDWoDRwv2zGo1_iqbhBM8dMgGOTDbtYz5A4sPAm4NSTqsBLHX02z8rbJoo69uYCe1WGZHhfDETTLv6MdwkfVyp0t64eDsr-BWP9Zzd_Kyf4wWlz0eSKQ_LmudUWv3BU7VH-44zLMzAo1ubzLhnqNcUyQhzyMmmI7dNxq7", "width": 4032}], "place_id": "ChIJVT30pVgZ2jERpOyZu_-R9ps", "plus_code": {"compound_code": "7R7F+98 Singapore", "global_code": "6PH57R7F+98"}, "rating": 3.8, "reference": "ChIJVT30pVgZ2jERpOyZu_-R9ps", "scope": "GOOGLE", "types": ["restaurant", "food", "point_of_interest", "establishment"], "user_ratings_total": 347, "vicinity": "1 #01-102, HarbourFront Walk, #103 VivoCity"}, {"business_status": "OPERATIONAL", "geometry": {"location": {"lat": 1.2516525, "lng": 103.8171855}, "viewport": {"northeast": {"lat": 1.253112080291502, "lng": 103.8185339302915}, "southwest": {"lat": 1.250414119708498, "lng": 103.8158359697085}}}, "icon": "https://maps.gstatic.com/mapfiles/place_api/icons/v1/png_71/restaurant-71.png", "icon_background_color": "#FF9E67", "icon_mask_base_uri": "https://maps.gstatic.com/mapfiles/place_api/icons/v2/restaurant_pinlet", "name": "Good Old Days Food Court", "opening_hours": {"open_now": false},